BLDG_UID,NAME,BLDG_CODE,CONSTR_STATUS,OCCU_DATE,BLDG_USAGE,BLDG_SEC_USAGE,JURISDICTION,NEIGHBOURHOOD,MANAGE_ORG,BLDG_STATE,GREEN_STATUS,CONSTR_TYPE,MAX_FLOORS,BLDG_HEIGHT,GBA,REC_IDS,HAS_SUBBLDGS,GEOM_SOURCE,NOTES,CREATED_USER,CREATED_DATE,LAST_EDITED_USER,LAST_EDITED_DATE,BLDG_FORM,BLDG_CONDITION,ACCESSIBILITY_RATING,BLDG_MAINTENANCE,BLDG_CLASS,PROPERTY_TYPE,LAT,LONG
VBL10179,Telus Hub,TELS,Complete,20170308,Other,,UNA,Wesbrook,Non-UBC,Occupied,,Concrete,1,1.65231,58,678,0,,,,,RACHELW,20220812051902,Outbuildings,,,,B3,LeasedFromUBC,-123.235473,49.255225
VBL10207,Building Operations Storage Shed,BOSS,Complete,19920101,Operations,,UBC,Academic,UBC,Occupied,,Concrete,1,6.37069,496,646,0,,,RACHELW,20210615025018,RACHELW,20220812051907,Outbuildings,Good,,UBC,B3,,-123.254414,49.262185
VBL10054,Rose Garden Parkade,PARR,Complete,19940101,Parking,,UBC,Academic,Parking,Occupied,,Concrete,5,12.95924,23185,528,0,,,,,RACHELW,20220812052003,Parking,Poor,,UBC,B6,,-123.256303,49.269111
VBL10093,Leon and Thea Koerner University Centre,UCEN,Complete,20080829,Academic,,UBC,Academic,UBC,Occupied,,Concrete,3,12.13348,4022,344;344-1;345,1,,,,,TOML,20220603222010,Unspecified,Poor,,UBC,B2,,-123.257217,49.268895
VBL10045,Pulp and Paper Centre,PAPC,Complete,19850101,Research,,UBC,Academic,UBC,Occupied,,Concrete,4,18.82,3317,747,0,,,,,TOML,20220224175718,Unspecified,Critical,,UBC,B2,,-123.247568,49.261416
VBL10154,Walter C. Koerner Library,KLIB,Complete,19720101,Academic,,UBC,Academic,UBC,Occupied,,Concrete,7,29.2789,17777,515;515-1,1,,,GISSTUD1,20180319192303,RACHELW,20221128183519,Unspecified,Poor,,UBC,B2,,-123.255125,49.26665
VBL10047,Hebb Building,HEBB,Complete,19640101,Academic,,UBC,Academic,UBC,Occupied,LEED Gold,Concrete,6,23.93,5957,656,0,,,,,TOML,20220224175718,Unspecified,Poor,,UBC,B2,,-123.251663,49.266129
VBL10051,Rodney Graham Millennium Sculpture Pavilion,RSCU,Complete,20030701,Services,,UBC,Academic,UBC,Occupied,,OtherMixed,1,3.31923,28,180,0,,,,,TOML,20220224175718,Unspecified,Good,,UBC,B2,,-123.2545,49.267524
VBL10257,Carey Centre,CRYC,Complete,20050321,Other,Housing,Non-UBC,Chancellor,Non-UBC,Occupied,,Concrete,6,16.42,4127,807,0,,,GISSTUD2,20190514225613,RACHELW,20220812173148,Unspecified,,,,B3,LeasedFromUBC,-123.248908,49.27152
VBL10044,Frank Forward Building,FORW,Complete,19680101,Academic,,UBC,Academic,UBC,Occupied,,Concrete,6,29.635,7542,562,0,,,,,TOML,20220224175718,Unspecified,Critical,,UBC,B2,,-123.251692,49.26169
VBL10289,Stirling House,STIR,Complete,20080730,Housing,,UNA,Chancellor,Private,Occupied,REAP Bronze,Wood,9,24.3,4788,818,0,,new GBA taken from spreadsheet,,,TOML,20220224175718,Apt5StoreyPlus,,,,B5,,-123.252469,49.270476
VBL10293,Wyndham Hall,WYND,Complete,19971126,Housing,,UNA,Hampton,Private,Occupied,,Wood,6,16.14097,4823,506-2,0,,new GBA taken from spreadsheet,,,TOML,20220224175718,AptLess5Storey,,,,B5,,-123.234172,49.259327
VBL10295,Acadia Park Residence - President's Row,APRP,Complete,19580101,StudentHousing,,UBC,Academic,SHHS,Occupied,,Wood,13,8.2,1784,014-1;014-3;014-2,0,,,GISSTUD2,20190704154828,TOML,20220224175718,Duplex/Townhouse,,,UBC,B5,,-123.238984,49.265326
VBL10027,TRIUMF - Compressor Building,TRF05,Complete,20030101,Research,,Non-UBC,Academic,Non-UBC,Occupied,,Concrete,2,9.19516,511,842,0,,,GISSTUD2,20190514181238,TOML,20220224175718,Unspecified,,,,B3,LeasedFromUBC,-123.229909,49.246664
VBL10031,TRIUMF - ISAC 1,TRF09,Complete,19980101,Research,,Non-UBC,Academic,Non-UBC,Occupied,,Concrete,5,13.84,14681,847,0,,,GISSTUD2,20190514181701,TOML,20220224175718,Unspecified,,,,B3,LeasedFromUBC,-123.229483,49.247869
VBL10032,TRIUMF - ISAC 2,TRF10,Complete,20030101,Research,,Non-UBC,Academic,Non-UBC,Occupied,,Concrete,5,12.59,5958,847-1,0,,,GISSTUD2,20190514181825,TOML,20220224175718,Unspecified,,,,B3,LeasedFromUBC,-123.2294,49.248293
VBL10132,"TRIUMF - Offices, Laboratory & Workshops",TRF14,Complete,20030101,Research,,Non-UBC,Academic,Non-UBC,Occupied,,Steel,2,11.52291,3264,854,0,,,GISSTUD2,20190514182356,TOML,20220224175718,Unspecified,,,,B3,LeasedFromUBC,-123.230598,49.247655
VBL10186,Ambulance Station,AMBS,Complete,19910101,Services,,Non-UBC,Academic,Non-UBC,Occupied,,Wood,1,6.44,211,539,0,,,,,TOML,20220224175718,Unspecified,,,,B2,LeasedFromUBC,-123.243597,49.263243
VBL10191,Magnolia House,MAGN,Complete,20120101,Housing,,UNA,Wesbrook,UBCPT,Occupied,REAP Gold,Wood,5,16.46,7617,713,0,,new GBA taken from spreadsheet,,,TOML,20220224175718,AptLess5Storey,,,,B5,,-123.233539,49.251541
VBL10320,TRIUMF House,TRFH,Complete,20040310,Housing,,Non-UBC,EastCampus,Non-UBC,Occupied,,Wood,5,17.27586,1564,534,0,,,,,TOML,20220224175718,AptLess5Storey,,,,B1,LeasedFromUBC,-123.241171,49.262025
VBL10242,University Hill Secondary School,UHIL,Complete,19950101,Other,Services,Non-UBC,Wesbrook,VSB,Occupied,,Steel,3,14.52,11835,590;590-1,0,,,,,TOML,20220224175718,Unspecified,,,,B2,LeasedFromUBC,-123.238731,49.254268
VBL10046,Public Safety Building - RCMP + Fire,PSAB,Complete,19820101,Services,,Non-UBC,Academic,Non-UBC,Occupied,,Concrete,3,9.83423,2935,852,0,,,,,TOML,20220224175718,Unspecified,,,,B2,LeasedFromUBC,-123.238113,49.258943
VBL10340,Ultima,ULTM,Complete,20110516,Housing,,UNA,Wesbrook,Private,Occupied,REAP Gold,Wood,5,18.71,5109,706,0,,new GBA taken from spreadsheet,,,TOML,20220224175718,AptLess5Storey,,,,B5,,-123.234399,49.25274
VBL10057,TRIUMF - Trailer RR,TRF26,Complete,20030101,Research,,Non-UBC,Academic,Non-UBC,Occupied,,OtherMixed,1,3.71373,94,850-1,0,,,GISSTUD2,20190514184356,TOML,20220224175718,Outbuildings,,,,B3,LeasedFromUBC,-123.230834,49.247137
VBL10063,TRIUMF - Trailer GG,TRF20,Complete,20030101,Research,,Non-UBC,Academic,Non-UBC,Occupied,,OtherMixed,1,4.36,777,850-1,0,,,GISSTUD2,20190514183815,TOML,20220224175718,Outbuildings,,,,B3,LeasedFromUBC,-123.229348,49.246197
VBL10422,Evolve,EVLV,UnderConstruction,,Housing,,UNA,Wesbrook,UBCPT,Unoccupied,,Wood,6,23.76297,9575,703,0,,,GISSTUD1,20190926205639,TOML,20220224175718,Apt5StoreyPlus,,,,B5,,-123.233231,49.252338
VBL10147,Somerset,SOMS,Complete,20050826,Housing,,UNA,Hawthorn,Private,Occupied,,Wood,3,13.65342,7266,622;622-1;622-2;622-3;622-4;622-5;622-6;622-7;622-8;622-9,0,,new GBA taken from spreadsheet,,,TOML,20220224175718,Duplex/Townhouse,,,,B5,,-123.24813,49.256504
VBL10148,Reflections,REFL,Complete,20050628,Housing,,UNA,Hawthorn,Private,Occupied,,Wood,5,18.53,8448,623,0,,new GBA taken from spreadsheet,,,TOML,20220224175718,AptLess5Storey,,,,B5,,-123.246886,49.258252
VBL10149,Promontory,PROM,Complete,20050408,Housing,,UNA,Hawthorn,Private,Occupied,,Concrete,20,55.76,14935,626,0,,new GBA taken from spreadsheet,,,TOML,20220224175718,Apt5StoreyPlus,,,,B5,,-123.247569,49.25595
VBL10158,Nine on the Park,NINE,Complete,20071119,Housing,,UNA,Hawthorn,Private,Occupied,,Wood,4,13.73202,2027,628,0,,new GBA taken from spreadsheet,,,TOML,20220224175718,Duplex/Townhouse,,,,B5,,-123.247034,49.259327
VBL10159,Tamarack House,TAMK,Complete,20061201,Housing,,UNA,Hawthorn,UBCPT,Occupied,,Wood,5,14.76156,7659,629,0,,new GBA taken from spreadsheet,,,TOML,20220224175718,AptLess5Storey,,,,B5,,-123.246328,49.259596
VBL10096,Dahlia House,DAHL,Complete,20120101,Housing,,UNA,Wesbrook,UBCPT,Occupied,REAP Gold,Wood,5,13.47062,5430,713-1,0,,new GBA taken from spreadsheet,,,TOML,20220224175718,AptLess5Storey,,,,B5,,-123.233927,49.252149
VBL10106,Sandringham,SAND,Complete,19940919,Housing,,UNA,Hampton,Private,Occupied,,Wood,3,11.3413,10588,500;500-1;500-2;500-3;500-4;500-5;500-6;500-7;500-8;500-9;500-10;500-11;500-12;500-13,0,,new GBA taken from spreadsheet,,,TOML,20220224175718,Duplex/Townhouse,,,,B5,,-123.233544,49.257847
VBL10041,Sumac House,SUMA,Complete,20020101,Housing,,UNA,Hawthorn,UBCPT,Occupied,,Wood,5,17.96,4329,154,0,,new GBA taken from spreadsheet,,,TOML,20220224175718,AptLess5Storey,,,,B5,,-123.250057,49.258279
VBL10133,Azalea House,AZAL,Complete,20010101,Housing,,UNA,Hawthorn,UBCPT,Occupied,,Wood,3,11.73,1313,152,0,,new GBA taken from spreadsheet,,,TOML,20220224175718,Duplex/Townhouse,,,,B5,,-123.249486,49.257895
VBL10143,Clement's Green,CLEM,Complete,20061127,Housing,,UNA,Hawthorn,Private,Occupied,REAP Silver,Wood,5,19.55,6907,621,0,,new GBA taken from spreadsheet,,,TOML,20220224175718,AptLess5Storey,,,,B5,,-123.245831,49.25822
VBL10434,Green College - Kitchen/Laundry,GRN2,Complete,19940101,StudentHousing,,UBC,Academic,SHHS,Occupied,,Wood,3,20.94718,794,414,0,,,RACHELW,20200623201237,TOML,20220224175718,AptLess5Storey,,,UBC,B5,,-123.255578,49.270989
VBL10347,Cascara House,CSCA,Complete,20010101,Housing,,UNA,Hawthorn,UBCPT,Occupied,,Wood,5,16.07,5484,153,0,,new GBA taken from spreadsheet,,,TOML,20220224175718,AptLess5Storey,,,,B5,,-123.249667,49.258468
VBL10203,Materials Recovery Facility,MARF,Complete,20170308,Operations,,UBC,Academic,UBC,Occupied,,Wood,1,2.12317,14,766,0,,,,,TOML,20220224175718,Outbuildings,,,UBC,B3,,-123.228539,49.245784
VBL10157,Old Barn Community Centre,OBCC,Complete,20070626,Other,Services,UNA,Hawthorn,UNA,Occupied,,Wood,2,12.3,3234,627,0,,,,,TOML,20220224175718,Unspecified,,,,B2,,-123.248269,49.258911
VBL10346,Technology Enterprise Facility 3,TEF3,Complete,20030101,Administrative,Research,Non-UBC,Academic,UBCPT,Occupied,LEED Silver,Concrete,8,30.69,14623,606,0,,,,,TOML,20220224175718,Unspecified,,,,B2,LeasedFromUBC,-123.246299,49.261156
VBL10388,UBC Hospital - Purdy Pavilion,PPAV,Complete,19770101,Services,Research,Non-UBC,Academic,VCH,Occupied,,Concrete,6,27.51,16266,462,0,,,,,TOML,20220224175718,Unspecified,,,Shared,B2,LeasedFromUBC,-123.245959,49.26326
VBL10279,St. Mark's Duplexes,STMD,Complete,20081110,Housing,,UNA,Chancellor,Private,Occupied,,Wood,4,13.21,1727,827-5;827-6;827-7;827-8,0,,new GBA taken from spreadsheet,,,TOML,20220224175718,Duplex/Townhouse,,,,B5,,-123.249405,49.272739
VBL10403,MBA House,MBAH,Complete,20090713,StudentHousing,Commercial,UBC,Wesbrook,SHHS,Occupied,REAP Silver,Wood,4,16.99208,3575,694,0,,new GBA taken from spreadsheet,,,TOML,20220224175718,AptLess5Storey,,,UBC,B5,,-123.235169,49.253876
VBL10437,Acadia Park Residence - Fairview Place,APR3,Complete,19890101,StudentHousing,,UBC,Academic,SHHS,Occupied,,Wood,3,11.23,1222,010-06,0,,GBA from OSIS,RACHELW,20200716183842,TOML,20220224175718,Duplex/Townhouse,,,UBC,B5,,-123.236838,49.263269
VBL10090,UBC Tennis Centre,TENN,Complete,20110706,Athletics,,UBC,Academic,Athletics,Occupied,,Steel,2,14.32812,10661,432;433,1,,,,,RORYB,20220728172331,Unspecified,Good,,UBC,B1,,-123.243836,49.259487
VBL10438,Acadia Park Residence - Yalta Place,APR6,Complete,19880101,StudentHousing,,UBC,Academic,SHHS,Occupied,,Wood,3,10.72,1516,009-05;009-06;009-07;009-09;009-10;009-12;009-13,0,,GBA from OSIS,RACHELW,20200716183842,TOML,20220224175718,Duplex/Townhouse,,,UBC,B5,,-123.238234,49.26414
VBL10440,Acadia Park Residence - Pearkes Lane,APR4,Complete,19880101,StudentHousing,,UBC,Academic,SHHS,Occupied,,Wood,3,10.98,1451,009-11;009-18;009-19,0,,GBA from OSIS,RACHELW,20200716183842,TOML,20220224175718,Duplex/Townhouse,,,UBC,B5,,-123.239427,49.264274
VBL10043,Gerald McGavin Building,GMCG,Complete,19950101,Administrative,,Non-UBC,Academic,UBCPT,Occupied,,Concrete,3,17.78674,3231,569,0,,,,,TOML,20220224175718,Unspecified,,,,B2,LeasedFromUBC,-123.246762,49.261791
VBL10160,Legacy,LGCY,Complete,20061023,Housing,,UNA,Hawthorn,Private,Occupied,REAP Silver,Wood,6,16.4,7718,630,0,,new GBA taken from spreadsheet,,,TOML,20220224175718,AptLess5Storey,,,,B5,,-123.248008,49.257463
VBL10175,The Balmoral,BALM,Complete,19970708,Housing,,UNA,Hampton,Private,Occupied,,Concrete,21,50.6915,10636,508,0,,new GBA taken from spreadsheet,,,TOML,20220224175718,Apt5StoreyPlus,,,,B5,,-123.232724,49.258489
VBL10393,Walter H. Gage Residence - East Tower,WGR4,Complete,19720101,StudentHousing,,UBC,Academic,SHHS,Occupied,LEED Gold,Concrete,18,51.97,9773,872-1,0,,,GISSTUD2,20190514202902,TOML,20220224175718,Apt5StoreyPlus,,,UBC,B5,,-123.249158,49.269645
VBL10394,Walter H. Gage Residence - North Tower,WGR5,Complete,19720101,StudentHousing,,UBC,Academic,SHHS,Occupied,LEED Gold,Concrete,18,53.59,9772,869-3,0,,,GISSTUD2,20190514202933,TOML,20220224175718,Apt5StoreyPlus,,,UBC,B5,,-123.250029,49.269841
VBL10395,Walter H. Gage Residence - South Tower,WGR6,Complete,19720101,StudentHousing,,UBC,Academic,SHHS,Occupied,LEED Gold,Concrete,18,54.07,9772,869-2,0,,,GISSTUD2,20190514203053,TOML,20220224175718,Apt5StoreyPlus,,,UBC,B5,,-123.24972,49.2692
VBL10034,TRIUMF - Nina Storage Shelter,TRF13,Complete,20030101,Research,,Non-UBC,Academic,Non-UBC,Occupied,,OtherMixed,1,4.60711,248,843-5,0,,,GISSTUD2,20190514182318,TOML,20220224175718,Outbuildings,,,,B3,LeasedFromUBC,-123.230435,49.246
VBL10061,TRIUMF - Machine Shop Materials,TRF12,Complete,20030101,Research,,Non-UBC,Academic,Non-UBC,Occupied,,OtherMixed,1,4.40867,105,850-4,0,,,GISSTUD2,20190514182230,TOML,20220224175718,Outbuildings,,,,B3,LeasedFromUBC,-123.22983,49.246383
VBL10033,TRIUMF - Liquid Helium Storage,TRF11,Complete,20030101,Research,,Non-UBC,Academic,Non-UBC,Occupied,,OtherMixed,1,5.48833,554,843-1,0,,,GISSTUD2,20190514182017,TOML,20220224175718,Unspecified,,,,B3,LeasedFromUBC,-123.230786,49.246923
VBL10030,TRIUMF - Hazardous Storage,TRF08,Complete,20050715,Research,,Non-UBC,Academic,Non-UBC,Occupied,,OtherMixed,1,3.05,77,842-1,0,,,GISSTUD2,20190514181531,TOML,20220224175718,Outbuildings,,,,B3,LeasedFromUBC,-123.229328,49.246732
VBL10022,TRIUMF - Accelerator,TRF02,Complete,20030101,Research,,Non-UBC,Academic,Non-UBC,Occupied,,Concrete,6,16.55,27015,853,0,,,GISSTUD2,20190514181017,TOML,20220224175718,Unspecified,,,,B3,LeasedFromUBC,-123.229286,49.247272
VBL10001,Earth and Ocean Sciences,EOS,Complete,19710101,Academic,,UBC,Academic,UBC,Occupied,,Concrete,4,22.63,10727,402;403,1,,,,,TOML,20220224175718,Unspecified,Critical,,UBC,B2,,-123.25249,49.26251
VBL10003,UBC Botanical Garden - Garden Pavilion,BOT4,Complete,19810101,Services,,UBC,Academic,UBC,Occupied,,Wood,2,6.36994,337,091,0,,,GISSTUD2,20190513201149,TOML,20220224175718,Outbuildings,Poor,,UBC,B1,,-123.247123,49.253259
VBL10004,UBC Botanical Garden - Scholar's Retreat,BOT5,Complete,19860101,Services,,UBC,Academic,UBC,Occupied,,Wood,1,4.71677,110,076,0,,,GISSTUD2,20190513201810,TOML,20220224175718,Outbuildings,Good,,UBC,B3,,-123.24692,49.254985
VBL10005,UBC Botanical Garden - Workshop (Trailer),BOT6,Complete,19800101,Operations,,UBC,Academic,UBC,Occupied,,OtherMixed,1,4.2513,512,094,0,,,GISSTUD2,20190513202130,TOML,20220224175718,Outbuildings,Poor,,UBC,B3,,-123.24764,49.254769
VBL10006,UBC Botanical Garden - Admin/Campbell Building,BOT2,Complete,19900101,Services,Research,UBC,Academic,UBC,Occupied,,Wood,2,8.40877,586,098,0,,,GISSTUD2,20190513200749,TOML,20220224175718,Unspecified,Poor,,UBC,B1,,-123.251116,49.253896
VBL10008,UBC Botanical Garden - Reception Centre,BOT3,Complete,19900101,Services,,UBC,Academic,UBC,Occupied,,Wood,1,7.28972,294,099,0,,,GISSTUD2,20190513201642,TOML,20220224175718,Unspecified,Critical,,UBC,B1,,-123.251275,49.254155
VBL10012,UBC Farm - Greenhouse 2,FRM5,Complete,19820101,Operations,,UBC,Academic,UBC,Occupied,,OtherMixed,1,3.25706,143,071-2,0,,,GISSTUD2,20190514191008,TOML,20220224175718,Outbuildings,Critical,,UBC,B3,,-123.239002,49.251043
VBL10014,UBC Farm - Farm Centre,FRM1,Complete,19800101,Academic,,UBC,Academic,UBC,Occupied,,Wood,1,5.29,194,389,0,,,GISSTUD2,20190514190813,TOML,20220224175718,Unspecified,Poor,,UBC,B1,,-123.240127,49.251583
VBL10015,UBC Farm - Children's Greenhouse,FRM3,Complete,19900101,Operations,,UBC,Academic,UBC,Occupied,,OtherMixed,1,2.62205,118,387,0,,,GISSTUD2,20190514191058,TOML,20220224175718,Outbuildings,Critical,,UBC,B3,,-123.239793,49.251477
VBL10019,Environmental Services Facility - Waste Processing & Storage,ENV7,Complete,19860101,Operations,,UBC,Academic,UBC,Occupied,,Concrete,1,5.29159,199,142,0,,,GISSTUD2,20190513231047,TOML,20220224175718,Outbuildings,Critical,,UBC,B3,,-123.22872,49.243446
VBL10042,Frederic Lasserre Building,LASR,Complete,19620101,Academic,,UBC,Academic,UBC,Occupied,,Concrete,5,17.88196,4572,028,0,,,,,TOML,20220224175718,Unspecified,Critical,,UBC,B2,,-123.255979,49.267591
VBL10404,Fraternity Village,FRAT,Complete,20040101,StudentHousing,,UBC,Academic,Non-UBC,Occupied,,Wood,5,14.09,6503,921;922;924;925;926;927;928,1,,,,,TOML,20220224175718,AptLess5Storey,,,,B5,LeasedFromUBC,-123.238849,49.259653
VBL10164,Granite Terrace,GRT1,Complete,20090902,Housing,Commercial,UNA,Wesbrook,UBCPT,Occupied,REAP Gold,Wood,5,22.4931,10487,687,1,,new GBA taken from spreadsheet,GISSTUD2,20190717210931,TOML,20220224175718,Unspecified,,,,B5,,-123.236997,49.254831
VBL10303,Corus,CORS,Complete,20071129,Housing,,UNA,Chancellor,Private,Occupied,,Concrete,17,49.58889,14800,839,0,,new GBA taken from spreadsheet,,,TOML,20220224175718,Apt5StoreyPlus,,,,B5,,-123.249347,49.270653
VBL10305,Westpoint,WSPT,Complete,20081017,Housing,,UNA,Chancellor,Private,Occupied,,Concrete,7,26.60316,5145,841,0,,new GBA taken from spreadsheet,,,TOML,20220224175718,Apt5StoreyPlus,,,,B5,,-123.250471,49.270242
VBL10313,Panhellenic House,PANH,Complete,20040827,StudentHousing,,UBC,Academic,Non-UBC,Occupied,,Wood,5,17.13462,3149,918,0,,,,,TOML,20220224175718,AptLess5Storey,,,,B5,LeasedFromUBC,-123.239567,49.260104
VBL10018,Larkspur House,LARK,Complete,20091030,Housing,,UNA,Wesbrook,UBCPT,Occupied,REAP Silver,Wood,5,12.51855,5127,586,0,,new GBA taken from spreadsheet,,,TOML,20220224175718,AptLess5Storey,,,,B5,,-123.234055,49.25356
VBL10011,Vista Point,VIST,Complete,20131028,Housing,,UNA,EastCampus,UBCPT,Occupied,REAP Gold,OtherMixed,18,42.1556,8160,555,0,,new GBA taken from spreadsheet,,,TOML,20220224175718,Apt5StoreyPlus,,,,B5,,-123.240272,49.261694
VBL10040,Keenleyside,KEEN,Complete,20080415,Housing,,UNA,Wesbrook,Private,Occupied,REAP Bronze,Wood,5,18.3835,8119,587,0,,new GBA taken from spreadsheet,,,TOML,20220224175718,AptLess5Storey,,,,B5,,-123.233169,49.253967
VBL10025,TRIUMF - ARIEL,TRF01,Complete,20150801,Research,,Non-UBC,Academic,Non-UBC,Occupied,LEED Gold,Concrete,5,14.21,3638,845,0,,,GISSTUD2,20190514180900,TOML,20220224175718,Unspecified,,,,B3,LeasedFromUBC,-123.229976,49.247701
VBL10026,TRIUMF - Badge Room,TRF04,Complete,20030101,Research,,Non-UBC,Academic,Non-UBC,Occupied,,OtherMixed,1,3.4515,26,854-2,0,,,GISSTUD2,20190514181157,TOML,20220224175718,Unspecified,,,,B3,LeasedFromUBC,-123.230295,49.247498
VBL10280,Esse,ESSE,Complete,20050811,Housing,,UNA,Chancellor,Private,Occupied,,Wood,4,13.12852,2534,808,0,,new GBA taken from spreadsheet,,,TOML,20220224175718,Duplex/Townhouse,,,,B5,,-123.24831,49.271197
VBL10286,The Bristol,BRIS,Complete,19951109,Housing,,UNA,Hampton,Private,Occupied,,Wood,5,18.40179,12635,505,0,,new GBA taken from spreadsheet,,,TOML,20220224175718,AptLess5Storey,,,,B5,,-123.235006,49.258841
VBL10287,The Regency,REGE,Complete,19991224,Housing,,UNA,Hampton,Private,Occupied,,Concrete,20,51.53,11905,507,0,,new GBA taken from spreadsheet,,,TOML,20220224175718,Apt5StoreyPlus,,,,B5,,-123.232862,49.259107
VBL10288,Argyll House East,ARGE,Complete,20060929,Housing,,UNA,Chancellor,Private,Occupied,,Concrete,8,23.18321,6878,810,0,,new GBA taken from spreadsheet,,,TOML,20220224175718,Apt5StoreyPlus,,,,B5,,-123.249551,49.271406
VBL10381,tə šxʷhəleləm̓s tə k̓ʷaƛ̓kʷəʔaʔɬ (Saltwater) - q̓əlɬaləməcən leləm̓ (Orca),QLCN,Complete,20210804,StudentHousing,,UBC,Academic,SHHS,Occupied,,Wood,8,29.9,6963,888,0,,,GISSTUD2,20190524190429,RACHELW,20230110181232,Apt5StoreyPlus,,,,B5,,-123.249653,49.268822
VBL10065,UBC Bookstore,BOOK,Complete,20140328,Services,,UBC,Academic,UBC,Occupied,,Concrete,2,20.98,7400,081;081-2,1,,,,,TONYZ,20220812043723,Unspecified,Poor,,UBC,B1,,-123.250592,49.264988
VBL10424,Brock Commons South,BRCS,UnderConstruction,,Commons,,UBC,Academic,SHHS,Unoccupied,,Concrete,13,42,18884,115,0,,,GISSTUD1,20190926224423,RACHELW,20230110180658,Apt5StoreyPlus,,,UBC,B5,,-123.252378,49.269067
VBL10447,Third Space,THSP,UnderConstruction,,Services,,UBC,Academic,UBC,Unoccupied,,Wood,1,7.85,247,653,0,,,RACHELW,20220722011038,RACHELW,20230110180757,Unspecified,,,,B5,,-123.253241,49.263008
VBL10435,Green College - D Commons,GRN8,Complete,19300101,Services,Other,UBC,Academic,SHHS,Occupied,,Wood,3,7.29387,1473,412,0,,,GISSTUD2,20190606173848,RACHELW,20230110180820,Unspecified,,,UBC,B5,,-123.256687,49.271298
VBL10189,Green College - D Graham House,GRN7,Complete,19300101,Services,Other,UBC,Academic,SHHS,Occupied,,Wood,3,13.59921,1473,412,0,,,RACHELW,20200623201249,RACHELW,20230110180834,Unspecified,,,UBC,B5,,-123.256266,49.27128
VBL10351,Library PARC@UBC,PARC,Complete,20150828,Academic,,UBC,Academic,UBC,Occupied,LEED Gold,OtherMixed,2,12.17,2086,769,0,,,,,RACHELW,20230110181232,Unspecified,Good,,UBC,B2,,-123.229708,49.245082
VBL10370,Exchange Residence,EXCH,Complete,20190412,StudentHousing,,UBC,Academic,SHHS,Occupied,LEED Gold,Concrete,14,50.53,26291,773,0,,Lot 10,GISSTUD2,20190524185641,RACHELW,20230110181338,Apt5StoreyPlus,,,UBC,B5,,-123.247692,49.268567
VBL10373,Child Care Services - Barish,MCC2,Complete,20191129,Services,,UBC,Academic,SHHS,Occupied,,OtherMixed,1,4.29,312,209,0,,,GISSTUD2,20190524184520,RACHELW,20230110181339,Unspecified,,,UBC,B2,,-123.23552,49.260465
VBL10355,University Boulevard Lot,ULOT,Complete,20190107,Parking,Parking,UBC,Academic,Parking,Occupied,,Concrete,1,3.83731,6039,798,0,,,GISSTUD2,20190524190134,RACHELW,20230110181339,Parking,,,UBC,B6,,-123.248944,49.26672
VBL10156,St. John Hospice,STJN,Complete,20130723,Services,Research,Non-UBC,Academic,Non-UBC,Occupied,REAP Silver,Wood,2,9.95282,1243,635,0,,,,,RACHELW,20230110181336,Unspecified,,,,B3,LeasedFromUBC,-123.247358,49.25551
VBL10375,Child Care Services - Willow,MCC3,Complete,20191129,Services,,UBC,Academic,SHHS,Occupied,,OtherMixed,1,4.29,312,208,0,,,GISSTUD2,20190524184642,RACHELW,20230110181347,Unspecified,,,UBC,B2,,-123.235327,49.260828
VBL10010,Greenwood Commons,GRWC,Complete,20070730,Housing,,UNA,EastCampus,UBCPT,Occupied,REAP Bronze,Wood,4,16.21312,5942,554-1-7;554-2;554-3;554-4;554-5;554-6;554-7,0,,,,,RACHELW,20230110181414,Duplex/Townhouse,,,,B5,,-123.240072,49.260948
VBL10166,Wesbrook Professional Centre,WPRO,Complete,20120830,Commercial,,UNA,Wesbrook,UBCPT,Occupied,,Wood,4,16.89333,1910,690,1,,,,,RACHELW,20230110181425,Unspecified,,,,B5,,-123.236356,49.254484
VBL10255,Oakwood Residences,OAKR,Complete,20200813,Housing,,UNA,Wesbrook,UBCPT,Unoccupied,,Wood,3,13.06,2977,719,0,,,GISSTUD2,20190515162139,RACHELW,20230110181429,Duplex/Townhouse,,,,B5,,-123.238524,49.251654
VBL10247,Georgia Point,GEOP,Complete,20200813,Housing,,UNA,Wesbrook,UBCPT,Occupied,,Concrete,14,45.18,11958,719,0,,,GISSTUD2,20190515163846,RACHELW,20230110181431,Apt5StoreyPlus,,,,B5,,-123.239208,49.251948
VBL10254,The Chatham,CHAT,Complete,19950427,Housing,,UNA,Hampton,Private,Occupied,,Concrete,20,54.8,11069,504,0,,new GBA taken from spreadsheet,,,TOML,20220224175718,Apt5StoreyPlus,,,,B5,,-123.236175,49.258692
VBL10230,Nitobe Memorial Garden,NITO,Complete,19590101,Services,,UBC,Academic,UBC,Occupied,,Wood,1,27.3399,81,476,0,,,,,RACHELW,20221213021814,Outbuildings,Poor,,UBC,B1,,-123.25919,49.266169
VBL10326,Place Vanier Residence - Margaret Mackenzie House,VNR07,Complete,19600101,StudentHousing,,UBC,Academic,SHHS,Occupied,,Concrete,5,13.63,2114,896-2,0,,,GISSTUD2,20190514205837,RACHELW,20221213023431,AptLess5Storey,Poor,,UBC,B5,,-123.259143,49.265692
VBL10368,Place Vanier Residence - Phyllis Ross House,VNR09,Complete,19600101,StudentHousing,,UBC,Academic,SHHS,Occupied,,Concrete,5,13.64,2142,896-3,0,,,GISSTUD2,20190514205951,RACHELW,20221213030938,AptLess5Storey,Poor,,UBC,B5,,-123.259614,49.265329
VBL10325,Place Vanier Residence - Aldyen Hamber House,VNR01,Complete,19600101,StudentHousing,,UBC,Academic,SHHS,Occupied,,Concrete,5,13.46,2114,896-4,0,,,GISSTUD2,20190514205404,RACHELW,20221213031738,AptLess5Storey,Poor,,UBC,B5,,-123.258795,49.265266
VBL10267,Place Vanier Residence - Dorothy Mawdsley House,VNR04,Complete,19600101,StudentHousing,,UBC,Academic,SHHS,Occupied,,Concrete,5,12.0558,2142,896-1,0,,,GISSTUD2,20190514205640,RACHELW,20221213033137,AptLess5Storey,Poor,,UBC,B5,,-123.259505,49.264868
VBL10269,Place Vanier Residence - Korea House,VNR06,Complete,20030101,StudentHousing,,UBC,Academic,SHHS,Occupied,,Concrete,7,17.24459,4830,898,0,,,GISSTUD2,20190514205749,RACHELW,20221213041200,Apt5StoreyPlus,Fair,,UBC,B5,,-123.26001,49.264613
VBL10367,Place Vanier Residence - Tec De Monterrey House,VNR12,Complete,20030101,StudentHousing,,UBC,Academic,SHHS,Occupied,,Concrete,7,17.12,4496,902,0,,,GISSTUD2,20190514210155,RACHELW,20221213041813,Apt5StoreyPlus,Good,,UBC,B5,,-123.259538,49.264041
VBL10360,Place Vanier Residence - Cariboo House,VNR02,Complete,19680101,StudentHousing,,UBC,Academic,SHHS,Occupied,,Concrete,5,12.2,2172,545-1,0,,,GISSTUD2,20190514205453,RACHELW,20221213042255,AptLess5Storey,Poor,,UBC,B5,,-123.258968,49.263743
VBL10268,Place Vanier Residence - Kootenay House,VNR05,Complete,19610101,StudentHousing,,UBC,Academic,SHHS,Occupied,,Concrete,5,13.53,2122,548,0,,,GISSTUD2,20190514205714,RACHELW,20221213042700,AptLess5Storey,Poor,,UBC,B5,,-123.257632,49.263879
VBL10358,Place Vanier Residence - Robson House,VNR10,Complete,19590101,StudentHousing,,UBC,Academic,SHHS,Occupied,,Concrete,5,13.43,2115,556,0,,,GISSTUD2,20190514210028,RACHELW,20221213043452,AptLess5Storey,Poor,,UBC,B5,,-123.258426,49.263907
VBL10339,Campus Energy Centre,CEC,Complete,20160101,Operations,,UBC,Academic,UBC,Occupied,LEED Gold,Concrete,2,17.66,2000,521,0,,,,,RACHELW,20230110181236,Unspecified,Good,,UBC,B2,,-123.245083,49.261648
VBL10236,Building 3800 Wesbrook Mall,3800,Complete,19850101,Research,,Non-UBC,Academic,Non-UBC,Occupied,,Concrete,5,20.68545,7433,612,0,,,,,TOML,20221104214326,Unspecified,,,,B3,LeasedFromUBC,-123.230294,49.250196
VBL10383,tə šxʷhəleləm̓s tə k̓ʷaƛ̓kʷəʔaʔɬ (Saltwater) - sɬewət̕ leləm̓ (Herring),SLWT,Complete,20220414,StudentHousing,,UBC,Academic,SHHS,Occupied,,Wood,7,24.375,6020,890,0,,,GISSTUD2,20190524190715,RACHELW,20230110181229,Apt5StoreyPlus,,,,B5,,-123.247923,49.269589
VBL10384,tə šxʷhəleləm̓s tə k̓ʷaƛ̓kʷəʔaʔɬ (Saltwater) - təməs leləm̓ (Sea Otter),TMES,Complete,20220414,StudentHousing,,UBC,Academic,SHHS,Occupied,,Wood,7,24.88,5420,891,0,,,GISSTUD2,20190617170544,RACHELW,20230110181230,Apt5StoreyPlus,,,,B5,,-123.248031,49.270168
VBL10023,TRIUMF - Accelerator Trailer,TRF03,Complete,20030101,Research,,Non-UBC,Academic,Non-UBC,Occupied,,OtherMixed,1,2.32431,30,853-3,0,,,GISSTUD2,20190514181117,RACHELW,20220802171621,Outbuildings,,,,B3,LeasedFromUBC,-123.230129,49.246851
VBL10028,TRIUMF - Equipment Marque,TRF06,Complete,20030101,Research,,Non-UBC,Academic,Non-UBC,Occupied,,OtherMixed,1,3.96656,84,843-7,0,,,GISSTUD2,20190514181341,RACHELW,20220802171623,Outbuildings,,,,B3,LeasedFromUBC,-123.230714,49.246738
VBL10053,TRIUMF - Trailer PP,TRF24,Complete,20030101,Research,,Non-UBC,Academic,Non-UBC,Occupied,,OtherMixed,1,2.38575,30,850-2,0,,,GISSTUD2,20190514184225,RACHELW,20220802171624,Outbuildings,,,,B3,LeasedFromUBC,-123.229145,49.246359
VBL10425,TRIUMF - Institute of Advanced Medical Isotopes (IAMI),TRF29,UnderConstruction,,Research,,Non-UBC,Academic,Non-UBC,Unoccupied,,Concrete,4,19.48,3400,887,0,,,GISSTUD1,20190925232729,RACHELW,20220802171626,Unspecified,,,,B3,LeasedFromUBC,-123.228275,49.246796
VBL10150,University Services Building,USB,Complete,19920101,Operations,Academic,UBC,Academic,UBC,Occupied,,OtherMixed,2,9.26808,11598,641,1,,,,,RACHELW,20220802171920,Unspecified,Critical,,UBC,B2,,-123.253785,49.2613
VBL10426,Arts Student Centre,ARTC,Complete,20211022,Services,,UBC,Academic,UBC,Occupied,LEED Gold,Wood,3,14.24737,1025,123,0,,,GISSTUD1,20191010232244,RACHELW,20220802171959,Unspecified,,,UBC,B3,,-123.253078,49.269288
VBL10431,UBC Botanical Garden - Alpine Garden Greenhouse,BOT8,Complete,19740101,Services,,UBC,Academic,UBC,Occupied,,Wood,1,0.47559,33,082,0,,,RACHELW,20200618222451,RACHELW,20220802172108,Outbuildings,Critical,,UBC,B3,,-123.245842,49.253645
VBL10007,UBC Botanical Garden - Ting Lookout,BOT7,Complete,19900101,Services,,UBC,Academic,UBC,Occupied,,Wood,1,7.69714,25,100,0,,,GISSTUD2,20190513201345,RACHELW,20220802172109,Outbuildings,Good,,UBC,B3,,-123.251644,49.254077
VBL10234,North Parkade,PARN,Complete,19880101,Parking,,UBC,Academic,Parking,Occupied,,Concrete,9,12.97293,27294,792,0,,,,,RACHELW,20221127065703,Parking,Poor,,UBC,B4,,-123.250918,49.269031
VBL10328,Chemistry,CHEM,Complete,19250101,Academic,,UBC,Academic,UBC,Occupied,,Concrete,5,24.85,26438,140;136;148;144;132,1,,,,,RACHELW,20221025182547,Unspecified,Poor,,UBC,B2,,-123.252665,49.265817
VBL10396,Walter H. Gage Residence - West Coast Suites (Gage Court),WGR3,Complete,19720101,StudentHousing,,UBC,Academic,SHHS,Occupied,LEED Gold,Concrete,4,11.80222,3597,872-2,0,,,GISSTUD2,20190514202820,TONYZ,20221007201340,AptLess5Storey,Poor,,UBC,B1,,-123.248586,49.269593
VBL10386,First Nations Longhouse,FNLH,Complete,19930101,Academic,,UBC,Academic,UBC,Occupied,,Wood,1,11.63,2157,337,1,,,,,RACHELW,20221205190501,Unspecified,Poor,,UBC,B2,,-123.257185,49.265561
VBL10252,The Leonard S. Klinck Building,LSK,Complete,19470101,Academic,,UBC,Academic,UBC,Occupied,,Concrete,5,21.8736,10194,308;308-1,0,,,,,RACHELW,20221205190607,Unspecified,,,UBC,B2,,-123.255334,49.265432
VBL10035,TRIUMF - Plant Storage,TRF15,Complete,20030101,Research,,Non-UBC,Academic,Non-UBC,Occupied,,OtherMixed,1,5.9,198,850-3,0,,,GISSTUD2,20190514182716,TOML,20220224175718,Outbuildings,,,,B3,LeasedFromUBC,-123.22963,49.246011
VBL10433,Plant Science Field Station,PLS1,Complete,19910101,Academic,,UBC,Academic,UBC,Occupied,,Wood,1,5.17,74,666,0,,,RACHELW,20200619232634,TOML,20220224175718,Unspecified,,,UBC,B2,,-123.249481,49.256307
VBL10432,Plant Science Garage,PLS2,Complete,19630101,Academic,,UBC,Academic,UBC,Occupied,,Wood,2,6.8356,317,667,0,,,RACHELW,20200619232634,TOML,20220224175718,Unspecified,,,UBC,B2,,-123.249256,49.25644
VBL10205,The Pemberley,PEMB,Complete,19970725,Housing,,UNA,Hampton,Private,Occupied,,Wood,6,18.67364,5733,509,0,,new GBA taken from spreadsheet,,,TOML,20220224175718,AptLess5Storey,,,,B5,,-123.232193,49.258013
VBL10020,FERIC,FERC,Complete,19900101,Administrative,,Non-UBC,Academic,Non-UBC,Occupied,,Concrete,3,12.36,1936,373,0,,,,,TOML,20220224175718,Unspecified,,,,B3,LeasedFromUBC,-123.244537,49.257752
VBL10208,Carey Hall,CRYH,Complete,19600101,Other,,Non-UBC,Chancellor,Non-UBC,Occupied,,Concrete,1,4.31121,907,804;806,0,,new GBA taken from spreadsheet,GISSTUD2,20190514225613,TOML,20220224175718,Unspecified,,,,B3,LeasedFromUBC,-123.248532,49.271737
VBL10294,AYO Smart Home,AYOH,Complete,20160107,Other,,Non-UBC,Academic,Non-UBC,Temporary,,Wood,2,4.78198,160,538,0,,,,,TOML,20220224175718,Outbuildings,,,,B3,LeasedFromUBC,-123.243407,49.263038
VBL10439,Acadia Park Residence - Montgomery Place,APR2,Complete,19880101,StudentHousing,,UBC,Academic,SHHS,Occupied,,Wood,3,11.05112,1070,009-15;009-16;009-17;009-20;009-21;009-22;009-23;009-24;009-25;009-26,0,,GBA from OSIS,RACHELW,20200716183842,TOML,20220224175718,Duplex/Townhouse,,,UBC,B5,,-123.238725,49.264815
VBL10115,St. James House,STJA,Complete,19940405,Housing,,UNA,Hampton,Private,Occupied,,Wood,5,18.65,12386,503,0,,new GBA taken from spreadsheet,,,TOML,20220224175718,AptLess5Storey,,,,B5,,-123.237199,49.25822
VBL10258,Acadia Park Residence - Melfa Lane,APR1,Complete,19890101,StudentHousing,,UBC,Academic,SHHS,Occupied,,Wood,3,10.8307,1785,009-01;009-02;009-03;009-04;009-01;010-01;010-02;010-03;010-04;010-05,0,,GBA from OSIS,RACHELW,20200716183842,TOML,20220224175718,Duplex/Townhouse,,,UBC,B5,,-123.2371,49.264247
VBL10059,TRIUMF - Shipping / Workshop,TRF28,Complete,19830101,Research,,Non-UBC,Academic,Non-UBC,Occupied,,Concrete,1,6.88849,984,850,0,,,GISSTUD2,20190514184524,TOML,20220224175718,Unspecified,,,,B3,LeasedFromUBC,-123.230068,49.246246
VBL10056,TRIUMF - Trailer Q,TRF25,Complete,20030101,Research,,Non-UBC,Academic,Non-UBC,Occupied,,OtherMixed,1,3.22337,30,843-2,0,,,GISSTUD2,20190514184315,TOML,20220224175718,Outbuildings,,,,B3,LeasedFromUBC,-123.23062,49.24682
VBL10050,TRIUMF - Trailer LL,TRF22,Complete,20030101,Research,,Non-UBC,Academic,Non-UBC,Occupied,,OtherMixed,1,3.94581,58,843-6,0,,,GISSTUD2,20190514184021,TOML,20220224175718,Outbuildings,,,,B3,LeasedFromUBC,-123.230972,49.246893
VBL10049,TRIUMF - Trailer HH & FF,TRF21,Complete,20030101,Research,,Non-UBC,Academic,Non-UBC,Occupied,,OtherMixed,1,4.37,608,854-1,0,,,GISSTUD2,20190514183922,TOML,20220224175718,Outbuildings,,,,B3,LeasedFromUBC,-123.230643,49.248316
VBL10038,TRIUMF - Trailer A,TRF18,Complete,20030101,Research,,Non-UBC,Academic,Non-UBC,Occupied,,OtherMixed,1,3.98448,145,842-7,0,,,GISSTUD2,20190514182927,TOML,20220224175718,Outbuildings,,,,B3,LeasedFromUBC,-123.230325,49.246586
VBL10361,Hillel House - Diamond Foundation Centre for Jewish Campus Life,HILL,Complete,20100101,Other,,Non-UBC,Academic,Non-UBC,Occupied,,Concrete,4,14.89,1237,445,0,,,,,TOML,20220224175718,Unspecified,,,,B3,LeasedFromUBC,-123.251324,49.268604
VBL10219,Crescent West,CRSW,Complete,20090501,Housing,,UNA,Wesbrook,Private,Occupied,,Wood,4,14.05,5466,605;605-1;605-2;605-3;605-4;605-5;605-6;605-7,0,,new GBA taken from spreadsheet,,,TOML,20220224175718,Duplex/Townhouse,,,,B5,,-123.232799,49.253131
VBL10220,Westchester,WSTR,Complete,20040713,Housing,,UNA,Hawthorn,Private,Occupied,,Wood,4,13.57477,5969,616;616-1;616-2;616-3;616-4;616-5;616-6;616-7,0,,new GBA taken from spreadsheet,,,TOML,20220224175718,Duplex/Townhouse,,,,B5,,-123.249109,49.257373
VBL10224,Gardenia House,GARD,Complete,20050603,Housing,,UNA,Hawthorn,UBCPT,Occupied,,Wood,5,19.795,5412,617,0,,new GBA taken from spreadsheet,,,TOML,20220224175718,AptLess5Storey,,,,B5,,-123.248967,49.25873
VBL10225,Journey,JOUR,Complete,20041028,Housing,,UNA,Hawthorn,Private,Occupied,,Wood,5,16.33,8823,619,0,,new GBA taken from spreadsheet,,,TOML,20220224175718,AptLess5Storey,,,,B5,,-123.247481,49.258036
VBL10226,Logan Lane,LOGN,Complete,20050810,Housing,,UNA,Hawthorn,Private,Occupied,,Wood,4,13.43,9688,620;620-1;620-2;620-3;620-4;620-5,0,,new GBA taken from spreadsheet,,,TOML,20220224175718,Duplex/Townhouse,,,,B5,,-123.245728,49.258901
VBL10392,Reconciliation Chapel,CHPL,Complete,19630101,Other,,Non-UBC,Chancellor,Non-UBC,Occupied,,Concrete,2,14.66,711,802,0,,,,,TOML,20220224175718,Unspecified,,,,B5,LeasedFromUBC,-123.252272,49.271559
VBL10118,St. Mark's College,STMK,Complete,19580101,Other,,Non-UBC,Chancellor,Non-UBC,Occupied,,Concrete,3,11.05,1487,828;829,1,,new GBA taken from spreadsheet,,,TOML,20220224175718,Unspecified,,,,B3,LeasedFromUBC,-123.249169,49.272277
VBL10021,FPInnovations,FPIN,Complete,19900101,Research,,Non-UBC,Academic,Non-UBC,Occupied,,Concrete,2,13.34482,9527,372,0,,,RACHELW,20190215175315,TOML,20220224175718,Unspecified,,,,B3,LeasedFromUBC,-123.244468,49.256786
VBL10167,Yu,YU,Complete,20120921,Housing,,UNA,Wesbrook,Private,Occupied,REAP Gold,OtherMixed,7,20.22811,16095,695,0,,new GBA taken from spreadsheet,,,RACHELW,20230110181326,Apt5StoreyPlus,,,,B5,,-123.23605,49.25356
VBL10354,UBC Exchange,TRAN,Complete,20170726,Operations,,Non-UBC,Academic,TransLink,Occupied,LEED Gold,Concrete,1,6.09946,19020,772,0,,,GISSTUD2,20190524190925,RACHELW,20230110181327,Parking,,,,B3,LeasedFromUBC,-123.247429,49.267759
VBL10213,Mundell House,MUNH,Complete,20200716,Housing,,UNA,Wesbrook,UBCPT,Unoccupied,REAP Gold,Wood,6,22.05,11378,698,0,,Wesbrook Place Lot 4,GISSTUD2,20190515161558,RACHELW,20230110181322,Apt5StoreyPlus,,,,B5,,-123.236053,49.252946
VBL10109,Indian Residential School History and Dialogue Centre (IRSHDC),IRSC,Complete,20170621,Academic,,UBC,Academic,UBC,Occupied,,Concrete,2,8.58,606,514,0,,,PLAN,20170914214805,RACHELW,20230110181323,Unspecified,,,UBC,B1,,-123.253741,49.266994
VBL10168,Wesbrook Community Centre,WCOM,Complete,20150910,Other,Services,UNA,Wesbrook,UNA,Occupied,LEED Gold,Concrete,2,11.94333,2913,697,0,,,,,RACHELW,20230110181324,Unspecified,,,,B2,,-123.237712,49.254008
VBL10091,National Soccer Development Centre,NSDC,Complete,20170602,Athletics,,UBC,Academic,Athletics,Occupied,LEED Gold,Concrete,3,12.31777,3510,435,0,,,,,RACHELW,20230110181317,Unspecified,Good,,UBC,B2,,-123.239979,49.257149
VBL10092,Chan Gunn Pavilion,GUNN,Complete,20171027,Academic,Athletics,UBC,Academic,UBC,Occupied,LEED Gold,Concrete,2,9.21,1810,438,0,,,PLAN,20171102230832,RACHELW,20230110181324,Unspecified,,,UBC,B2,,-123.241655,49.260939
VBL10379,Nobel House,NOBL,Complete,20141028,Housing,,UNA,Wesbrook,UBCPT,Occupied,REAP Gold,Wood,8,20.37432,9965,717,0,,new GBA taken from spreadsheet,,,RACHELW,20230110181325,Apt5StoreyPlus,,,,B5,,-123.233205,49.25084
VBL10069,Bioenergy Research and Demonstration Facility,BRDF,Complete,20120614,Operations,,UBC,Academic,UBC,Occupied,LEED Gold,Wood,2,12.55549,1950,019,0,,,,,RACHELW,20230110181214,Unspecified,Good,,UBC,B2,,-123.254521,49.260296
VBL10165,The Mews,MEWS,Complete,20110131,Housing,Commercial,UNA,Wesbrook,UBCPT,Occupied,REAP Gold,Concrete,6,18.24,7767,689,0,,new GBA taken from spreadsheet,,,RACHELW,20230110181215,Apt5StoreyPlus,,,,B5,,-123.235711,49.254541
VBL10232,Focal,FOCL,Complete,20200417,Housing,Commercial,UNA,UBlvd,UBCPT,Unoccupied,REAP Gold,Concrete,6,25.1538,7049,216,0,,UBlvd Site D,GISSTUD2,20190524191045,RACHELW,20230110181333,Unspecified,,,,B5,LeasedFromUBC,-123.248432,49.266181
VBL10314,Axis,AXIS,Complete,20130101,Housing,,UNA,Chancellor,Private,Occupied,REAP Gold,Concrete,16,42.22,15941,819,0,,new GBA taken from spreadsheet,,,RACHELW,20230110181327,Apt5StoreyPlus,,,,B5,,-123.252233,49.270001
VBL10321,Pine House,PINE,Complete,20180418,Housing,,UNA,Wesbrook,UBCPT,Occupied,LEED Gold,Wood,7,21.07,7997,715,0,,,RACHELW,20180524222111,RACHELW,20230110181328,Apt5StoreyPlus,,,,B5,,-123.234274,49.251443
VBL10322,Cypress House,CYPR,Complete,20180418,Housing,,UNA,Wesbrook,UBCPT,Occupied,LEED Gold,Wood,7,20.898,7319,714,0,,,RACHELW,20180528180304,RACHELW,20230110181329,Apt5StoreyPlus,,,,B5,,-123.23469,49.25194
VBL10372,Child Care Services - Saw-Whet,MCC1,Complete,20191129,Services,,UBC,Academic,SHHS,Occupied,,OtherMixed,1,4.29,312,211,0,,,GISSTUD2,20190524184347,RACHELW,20230110181330,Unspecified,,,UBC,B2,,-123.236502,49.260393
VBL10256,Robert H. Lee Alumni Centre,ALUM,Complete,20150422,Services,,UBC,Academic,Alumni,Occupied,LEED Gold,Concrete,4,16.3,3885,797,0,,,,,RACHELW,20230110181332,Unspecified,,,,B1,,-123.249909,49.265946
VBL10448,Food and Beverage Innovation Centre,FBIC,PreConstruction,,Services,,UBC,Academic,SHHS,Unoccupied,,Wood,2,7.5,743,466,0,,,RACHELW,20220722015555,RACHELW,20230110173645,Unspecified,,,,B5,,-123.248219,49.263884
VBL10088,Marine Drive Residence - 3 Commonsblock,MAR3,Complete,20090706,Services,StudentHousing,UBC,Academic,SHHS,Occupied,,Wood,2,6.24436,1300,377-3,0,,,GISSTUD2,20190514211238,RACHELW,20230110211330,Unspecified,Good,,UBC,B2,,-123.256859,49.26141
VBL10217,Marine Drive Residence - 4,MAR4,Complete,20080101,StudentHousing,,UBC,Academic,SHHS,Occupied,,Concrete,19,48.84,13760,377-4,1,,,GISSTUD2,20190514211047,RACHELW,20230110211335,Apt5StoreyPlus,Good,,UBC,B5,,-123.255361,49.261563
VBL10089,Marine Drive Residence - 5,MAR5,Complete,20070831,StudentHousing,,UBC,Academic,SHHS,Occupied,,Concrete,18,48.43,12011,377-5,0,,,GISSTUD2,20190514211122,RACHELW,20230110211340,Apt5StoreyPlus,Good,,UBC,B5,,-123.254905,49.261115
VBL10218,Marine Drive Residence - 6,MAR6,Complete,20070101,StudentHousing,,UBC,Academic,SHHS,Occupied,,Wood,9,21.45,10695,377-6,1,,,GISSTUD2,20190514211159,RACHELW,20230110211345,Apt5StoreyPlus,Good,,UBC,B5,,-123.256062,49.261079
VBL10319,Marine Drive Residence - 1 Simon Lee,MAR1,Complete,20060101,StudentHousing,,UBC,Academic,SHHS,Occupied,,Concrete,19,53.90034,11707,377-1,1,,,GISSTUD2,20190514210907,RACHELW,20230110211353,Apt5StoreyPlus,Good,,UBC,B5,,-123.255876,49.262001
VBL10136,Eton - Apartment,ETN2,Complete,20190226,Housing,,UNA,Wesbrook,Private,Occupied,REAP Gold,Concrete,4,15.71,6933,592,0,,,GISSTUD2,20190516182234,RACHELW,20230110211657,AptLess5Storey,,,,B5,,-123.231376,49.253202
VBL10140,Child Care Services - Sitka/Discovery,CCS6,Complete,19890101,Services,,UBC,Academic,SHHS,Occupied,,Wood,1,6.0299,382,202,1,,,GISSTUD2,20190514224944,RACHELW,20230110211657,Unspecified,Poor,,UBC,B2,,-123.234519,49.259762
VBL10141,Child Care Services - Summer of 73/Lilliput,CCS7,Complete,19890101,Services,,UBC,Academic,SHHS,Occupied,,Wood,1,5.9514,382,200,1,,,GISSTUD2,20190514225053,RACHELW,20230110211657,Unspecified,Poor,,UBC,B2,,-123.23547,49.25945
VBL10142,Child Care Services - Tillicum/Canada Goose,CCS8,Complete,19890101,Services,,UBC,Academic,SHHS,Occupied,,Wood,1,6.1322,386,201,1,,,GISSTUD2,20190514225127,RACHELW,20230110211657,Unspecified,Poor,,UBC,B2,,-123.234985,49.259596
VBL10086,Beaty Biodiversity Centre,BETY,Complete,20090521,Academic,,UBC,Academic,UBC,Occupied,,Concrete,4,16.29,11553,314,1,,,TOML,20221004225827,RACHELW,20221011045452,Unspecified,Fair,,UBC,B2,,-123.250334,49.263425
VBL10017,Centre for Comparative Medicine,CCM,Complete,20111223,Academic,Research,UBC,Academic,UBC,Occupied,,Concrete,2,8.49,10367,057,0,,,,,RACHELW,20230110181216,Unspecified,Good,,UBC,B2,,-123.233554,49.246819
VBL10037,TRIUMF - Stores Building,TRF17,Complete,20030101,Research,,Non-UBC,Academic,Non-UBC,Occupied,,OtherMixed,2,9.52,723,843,0,,,GISSTUD2,20190514182841,RACHELW,20230110181218,Unspecified,,,,B3,LeasedFromUBC,-123.230587,49.246544
VBL10409,Biological Sciences Building,BIOL,Complete,19570101,Academic,,UBC,Academic,UBC,Occupied,LEED Gold,Concrete,5,24.03,19421,063;066;065;068;069;069-1;069-2,1,,,,,RACHELW,20221011014855,Unspecified,Fair,,UBC,B2,,-123.251339,49.264469
VBL10238,Spirit,SPRT,Complete,20100927,Housing,,UNA,Wesbrook,Private,Occupied,REAP Gold,Wood,5,18.28856,5410,584,0,,new GBA taken from spreadsheet,,,RACHELW,20230110181217,AptLess5Storey,,,,B5,,-123.233615,49.252986
VBL10110,Pharmaceutical Sciences Building,PHRM,Complete,20120817,Academic,,UBC,Academic,UBC,Occupied,LEED Gold,Concrete,8,37.7847,36137,527,0,,,,,RACHELW,20230110181220,Unspecified,Good,,UBC,B2,,-123.243346,49.262279
VBL10420,Pump House,PUMP,Complete,20210421,Operations,,UBC,Academic,UBC,Unoccupied,,Steel,2,5.44,156,727,0,,,GISSTUD2,20190923201928,RACHELW,20230110181226,Outbuildings,,,UBC,B3,,-123.254161,49.264621
VBL10382,tə šxʷhəleləm̓s tə k̓ʷaƛ̓kʷəʔaʔɬ (Saltwater) - sqimək̓ʷ leləm̓ (Octopus),SQMK,Complete,20220414,StudentHousing,,UBC,Academic,SHHS,Occupied,,Wood,7,27.68,4710,892,0,,,GISSTUD2,20190617170556,RACHELW,20230110181228,Apt5StoreyPlus,,,,B5,,-123.248315,49.270523
VBL10421,UBC Counselling Services Annex,CNSL,Complete,,Services,,UBC,Academic,UBC,Unoccupied,,Wood,1,4.8905,479,TMP001,0,,,GISSTUD2,20190923201149,RACHELW,20230110181221,Unspecified,,,UBC,B2,,-123.25199,49.268227
VBL10185,Acadia Commonsblock,ACOM,Complete,19890101,Services,StudentHousing,UBC,Academic,SHHS,Occupied,,Wood,1,6.49313,836,011,0,,,,,RACHELW,20230110211048,Unspecified,Poor,,UBC,B2,,-123.237352,49.262634
VBL10231,Totem Park Residence - Commonsblock,TPR1,Complete,19640101,Services,StudentHousing,UBC,Academic,SHHS,Occupied,,Concrete,3,9.58,4664,540-1,1,,,GISSTUD2,20190514211559,RACHELW,20230110211050,Unspecified,Poor,,UBC,B2,,-123.252981,49.25804
VBL10317,Marine Drive Residence - 2,MAR2,Complete,20060101,StudentHousing,,UBC,Academic,SHHS,Occupied,,Wood,6,17.84,7132,377-2,0,,,GISSTUD2,20190514210947,RACHELW,20230110211326,Apt5StoreyPlus,Good,,UBC,B5,,-123.256765,49.261877
VBL10378,tə šxʷhəleləm̓s tə k̓ʷaƛ̓kʷəʔaʔɬ (Saltwater) - qʷta:yθən leləm̓ (Sturgeon),QTYN,Complete,20210804,StudentHousing,,UBC,Academic,SHHS,Occupied,,Wood,10,32.9,8714,889,0,,,GISSTUD2,20190524190606,RACHELW,20230110181222,Apt5StoreyPlus,,,,B5,,-123.248518,49.269217
VBL10429,Technology Enterprise Facility 4,TEF4,PreConstruction,,Administrative,Commercial,Non-UBC,Academic,UBCPT,Unoccupied,LEED Gold,Concrete,12,53,22191,607,0,,,RACHELW,20200203174759,RACHELW,20230110180900,Unspecified,,,,B2,LeasedFromUBC,-123.245773,49.261291
VBL10442,UBC Gateway Building,GATE,UnderConstruction,,Administrative,,UBC,Academic,UBC,Unoccupied,,Wood,6,36,24800,217,0,,,NIKT,20210323221220,RACHELW,20230110181142,,,,,B2,,-123.246487,49.266758
VBL10039,George Cunningham Building,CUNN,Complete,19600101,Academic,,UBC,Academic,UBC,Occupied,,Concrete,4,17.648,4900,624;625,0,,,,,RACHELW,20230110181128,Unspecified,Critical,,UBC,B2,,-123.248732,49.264787
VBL10443,BCR9,BCR9,PreConstruction,,Housing,,UBC,Wesbrook,UBCPT,Unoccupied,,Wood,6,20,12880,702,0,,,NIKT,20210323225715,RACHELW,20230110181143,Apt5StoreyPlus,,,,B5,,-123.232318,49.2525
VBL10444,SBME,SBME,UnderConstruction,,Academic,,UBC,Academic,UBC,Unoccupied,,Concrete,5,32,14530,459,0,,,NIKT,20210325152429,RACHELW,20230110181145,,,,,B2,,-123.24731,49.265635
VBL10112,Sitka,SITK,Complete,20120803,Housing,,UNA,EastCampus,Private,Occupied,REAP Gold,Concrete,15,46.23,7646,550,0,,new GBA taken from spreadsheet,,,RACHELW,20230110181213,Apt5StoreyPlus,,,,B5,,-123.241911,49.262882
VBL10441,Recreation Centre North,RCN,UnderConstruction,,Athletics,,UBC,Academic,Atheltics,Unoccupied,,Wood,3,20,9377,775,0,,,NIKT,20210323215825,RACHELW,20230110181140,,,,,B2,,-123.25042,49.267983
VBL10423,Brock Commons North,BRCN,UnderConstruction,,Commons,,UBC,Academic,SHHS,Unoccupied,,Concrete,18,52,12570,116,0,,,RACHELW,20210416040415,RACHELW,20230110181146,Apt5StoreyPlus,,,,B5,,-123.252629,49.269574
VBL10412,Gerald McGavin UBC Rugby Centre,RUGC,Complete,20130108,Athletics,,UBC,Academic,Athletics,Occupied,LEED Gold,Concrete,2,7.20781,524,434,0,,,,,RACHELW,20230110181240,Unspecified,Good,,UBC,B2,,-123.241314,49.259582
VBL10311,Ponderosa Commons East - Audain Art Centre/Spruce House,PCE,Complete,20130926,Commons,,UBC,Academic,SHHS,Occupied,LEED Gold,Steel,17,48.0576,10581,903,1,,,,,RACHELW,20230110181243,Apt5StoreyPlus,Good,,UBC,B5,,-123.25441,49.263781
VBL10312,Ponderosa Commons North - Oak/Cedar House,PCN,Complete,20150903,Commons,,UBC,Academic,SHHS,Occupied,LEED Gold,Steel,19,52.37,27189,905,1,,,,,RACHELW,20230110181241,Apt5StoreyPlus,Good,,UBC,B5,,-123.256151,49.264092
VBL10072,Earth Sciences Building,ESB,Complete,20120824,Academic,,UBC,Academic,UBC,Occupied,LEED Gold,Concrete,6,23.71,14963,225,0,,,,,RACHELW,20230110181243,Unspecified,Good,,UBC,B2,,-123.252187,49.263067
VBL10066,The Brimacombe Building,BRIM,Complete,20170424,Academic,,UBC,Academic,UBC,Occupied,LEED Gold,Concrete,5,26.62,13656,020-1;020,1,,,,,RACHELW,20221129190416,Unspecified,Poor,,UBC,B2,,-123.248073,49.26186
VBL10407,AMS Nest,NEST,Complete,20150101,Services,,UBC,Academic,AMS,Occupied,LEED Platinum,Concrete,5,30.15,20282,795,1,,,,,RACHELW,20230110181240,Unspecified,Good,,UBC,B1,,-123.249808,49.266562
VBL10071,UBC Aquatic Centre,AQUA,Complete,20161128,Athletics,,UBC,Academic,Athletics,Occupied,LEED Gold,Concrete,3,14.1771,7400,213,0,,,,,RACHELW,20230110181244,Unspecified,Good,,UBC,B1,,-123.248595,49.267789
VBL10013,"Orchard Commons - Vantage College, Bartlett/Braeburn House",ORCH,Complete,20160715,Commons,,UBC,Academic,SHHS,Occupied,LEED Gold,Concrete,20,30.50868,41023,557,1,,GBA from OSIS,,,RACHELW,20230110181248,Apt5StoreyPlus,Good,,UBC,B5,,-123.251329,49.260462
VBL10105,Totem Park Residence - c̓əsnaʔəm House,TPR7,Complete,20170720,StudentHousing,,UBC,Academic,SHHS,Occupied,LEED Gold,Concrete,8,19.26,8862,541,0,,,GISSTUD2,20190514211922,RACHELW,20230110181312,Apt5StoreyPlus,Good,,UBC,B5,,-123.251637,49.256811
VBL10169,Pacific,PACC,Complete,20091113,Housing,,UNA,Wesbrook,Private,Occupied,REAP Gold,Wood,6,17.3,7802,699,0,,new GBA taken from spreadsheet,,,RACHELW,20230110181313,AptLess5Storey,,,,B5,,-123.234987,49.253278
VBL10237,UBC Baseball Rose Indoor Training Centre,BTC,Complete,20150804,Athletics,,UBC,Academic,Athletics,Occupied,,Wood,2,9.83845,1224,862,0,,,,,RACHELW,20230110181315,Unspecified,Good,,UBC,B2,,-123.239512,49.256214
VBL10345,Virtuoso,VIRT,Complete,20180125,Housing,,UNA,Wesbrook,Private,Occupied,REAP Gold,Wood,8,25.76,10925,718,0,,,RACHELW,20180528180304,RACHELW,20230110181315,Apt5StoreyPlus,,,,B5,,-123.233967,49.250732
VBL10356,Central,CNTL,Complete,20170529,Housing,Commercial,UNA,UBlvd,UBCPT,Occupied,REAP Gold Plus,Concrete,7,21.51,7306,215,0,,new GBA taken from spreadsheet,PLAN,20170914214629,RACHELW,20230110181318,Unspecified,,,,B5,LeasedFromUBC,-123.247223,49.266336
VBL10170,Village Square,VSQU,Complete,20170808,Housing,Commercial,UNA,Wesbrook,UBCPT,Occupied,REAP Gold,Wood,8,22.07,10013,691,0,,new GBA taken from spreadsheet,PLAN,20170914214526,RACHELW,20230110181319,Apt5StoreyPlus,,,,B5,,-123.236379,49.25396
VBL10171,Webber House,WEBH,Complete,20170512,Housing,,UNA,Wesbrook,UBCPT,Occupied,REAP Gold,Wood,8,19.66,4256,693,0,,new GBA taken from spreadsheet,,,RACHELW,20230110181319,Apt5StoreyPlus,,,,B5,,-123.236801,49.25329
VBL10212,Brock Commons East - Tallwood House,BRCE,Complete,20160518,Commons,,UBC,Academic,SHHS,Occupied,LEED Gold,Wood,18,56.18,15115,114,0,,new GBA taken from spreadsheet,PLAN,20170914214914,RACHELW,20230110181320,Apt5StoreyPlus,Good,,UBC,B5,,-123.251314,49.26951
VBL10310,Ponderosa Commons West - Arbutus/Maple House,PCW,Complete,20130830,Commons,,UBC,Academic,SHHS,Occupied,LEED Gold,Steel,17,42.83,17885,904,1,,,,,RACHELW,20230110181321,Apt5StoreyPlus,Good,,UBC,B5,,-123.25562,49.263441
VBL10082,"Food, Nutrition and Health Building",FNH,Complete,20051223,Academic,,UBC,Academic,UBC,Occupied,,Concrete,4,16.29,4292,449;449-1,1,,,,,RACHELW,20230106234346,Unspecified,Poor,,UBC,B2,,-123.249744,49.264014
VBL10274,Child Care Services - Little Goslings/Coho,CCS3,Complete,19890101,Services,,UBC,Academic,SHHS,Occupied,,Wood,1,6.4617,319,203,1,,,GISSTUD2,20190514224753,RACHELW,20230110211658,Unspecified,Poor,,UBC,B2,,-123.234048,49.25992
VBL10275,Child Care Services - Little Raven/Pacific Spirit,CCS4,Complete,19890101,Services,,UBC,Academic,SHHS,Occupied,,Wood,1,5.86,482,204,1,,,GISSTUD2,20190514224825,RACHELW,20230110211658,Unspecified,Poor,,UBC,B2,,-123.233802,49.260216
VBL10276,Child Care Services - Sandpiper/Auklet,CCS5,Complete,20080101,Services,,UBC,Academic,SHHS,Occupied,,Wood,1,6.90311,767,206,1,,,GISSTUD2,20190514224909,RACHELW,20230110211658,Unspecified,Good,,UBC,B2,,-123.234743,49.26026
VBL10297,Coast - Apartment West,COSW,Complete,20090603,Housing,,UNA,Chancellor,Private,Occupied,REAP Bronze,Concrete,8,24.41,5600,832-1,0,,,GISSTUD2,20190514215933,RACHELW,20230110211658,Apt5StoreyPlus,,,,B5,,-123.253207,49.270742
VBL10300,Coast - Apartment East,COSE,Complete,20090603,Housing,,UNA,Chancellor,Private,Occupied,REAP Bronze,Concrete,8,19.52357,7188,832-2,0,,,GISSTUD2,20190514215824,RACHELW,20230110211658,Apt5StoreyPlus,,,,B5,,-123.252555,49.271045
VBL10445,Wordsworth - Highrise,WSW1,PreConstruction,,Housing,,UNA,Wesbrook,Private,Unoccupied,REAP Gold,Concrete,16,49.3,14977,,0,,,RACHELW,20220524205814,RACHELW,20230110211658,Apt5StoreyPlus,,,,B5,,-123.236845,49.252441
VBL10446,Wordsworth - Townhouses,WSW2,PreConstruction,,Housing,,UNA,Wesbrook,Private,Unoccupied,REAP Gold,Concrete,3,,3291,,0,,,RACHELW,20220524210030,RACHELW,20230110211658,Duplex/Townhouse,,,,B5,,-123.237199,49.251943
VBL10450,Carey College Lot 42,CRYC2,PreConstruction,,Other,Housing,Non-UBC,Chancellor,Non-UBC,Unoccupied,,Wood,6,18.3,4570,,0,,,RACHELW,20220812172031,RACHELW,20230110211658,,,,,B3,LeasedFromUBC,-123.248739,49.271016
VBL10352,The Residences at Nobel Park - Townhouses,REN2,Complete,20201007,Housing,,UNA,Wesbrook,Private,Unoccupied,REAP Gold,Wood,3,11.62692,4269,721,0,,Wesbrook Place Lots 7 & 8,GISSTUD2,20190516182902,RACHELW,20230110211725,Duplex/Townhouse,,,,B5,,-123.236394,49.250915
VBL10353,The Residences at Nobel Park - Apartment,REN1,Complete,20201007,Housing,,UNA,Wesbrook,Private,Unoccupied,REAP Gold,Concrete,17,45.17327,25009,721,0,,Wesbrook Place Lots 7 & 8,GISSTUD2,20190516182929,RACHELW,20230110211725,Apt5StoreyPlus,,,,B5,,-123.235007,49.250613
VBL10385,Chancellor House - Duplexes,CHOD,Complete,20050418,Housing,,UNA,Chancellor,Private,Occupied,,Wood,3,12.39,1508,833;834;835,0,,new GBA taken from spreadsheet,GISSTUD2,20190514222957,RACHELW,20230110211725,Duplex/Townhouse,,,,B5,,-123.251856,49.27198
VBL10387,Chancellor House - Apartment,CHOA,Complete,20050418,Housing,,UNA,Chancellor,Private,Occupied,,Concrete,8,23.24,6326,830;830-1;830-2;830-3;830-4,0,,new GBA taken from spreadsheet,GISSTUD2,20190514222957,RACHELW,20230110211725,AptLess5Storey,,,,B5,,-123.251437,49.27156
VBL10390,Sail - Building 2,SAL2,Complete,20140101,Housing,,UNA,Wesbrook,Private,Occupied,REAP Platinum,Wood,8,22.09736,6887,707,0,,new GBA taken from spreadsheet,RACHELW,20190513220102,RACHELW,20230110211725,Apt5StoreyPlus,,,,B5,,-123.235208,49.252624
VBL10100,Lower Mall Research Station,LMRS,Complete,19600101,Operations,,UBC,Academic,UBC,Occupied,,Concrete,3,14.84,6406,022,0,,,,,RACHELW,20221122004749,Unspecified,Critical,,UBC,B3,,-123.255524,49.260553
VBL10126,Totem Park Residence - Dene/Nootka House,TPR2,Complete,19640101,StudentHousing,,UBC,Academic,SHHS,Occupied,,Concrete,7,22.65,9014,540-3,1,,,GISSTUD2,20190514211631,RACHELW,20221215043911,Apt5StoreyPlus,Poor,,UBC,B5,,-123.253225,49.258715
VBL10002,Totem Park Residence - Haida/Salish House,TPR6,Complete,19640101,StudentHousing,,UBC,Academic,SHHS,Occupied,,Concrete,7,22.52,8666,540-2,1,,,GISSTUD2,20190514211850,RACHELW,20221215043916,Apt5StoreyPlus,Poor,,UBC,B5,,-123.252622,49.257476
VBL10127,Totem Park Residence - Kwakiutl/Shuswap House,TPR3,Complete,19680101,StudentHousing,,UBC,Academic,SHHS,Occupied,,Concrete,7,22.6,9027,565,1,,,GISSTUD2,20190514211706,RACHELW,20221215043920,Apt5StoreyPlus,Poor,,UBC,B5,,-123.252324,49.259362
VBL10128,Totem Park Residence - həm̓ləsəm̓ House,TPR5,Complete,20110101,StudentHousing,,UBC,Academic,SHHS,Occupied,REAP Gold,Concrete,8,21.62,9830,567,0,,,GISSTUD2,20190514211811,RACHELW,20221215043928,Apt5StoreyPlus,Good,,UBC,B5,,-123.251195,49.258604
VBL10016,Totem Park Residence - q̓ələχən House,TPR4,Complete,20110823,StudentHousing,,UBC,Academic,SHHS,Occupied,REAP Gold,Concrete,8,20.19375,6729,566,0,,,RACHELW,20220712031201,RACHELW,20221215043931,Apt5StoreyPlus,Good,,UBC,B5,,-123.251545,49.259167
VBL10398,West Hampstead - Townhouses,WHM2,Complete,19931208,Housing,,UNA,Hampton,Private,Occupied,,Wood,2,13,6827,501;501-1;501-2;501-3;501-4;501-5;501-6;501-7;501-8;501-9;501-10;501-11,0,,new GBA taken from spreadsheet,GISSTUD2,20190514231435,RACHELW,20230110211725,Duplex/Townhouse,,,,B5,,-123.234582,49.257507
VBL10399,Coast - Duplexes,COSD,Complete,20090101,Housing,,UNA,Chancellor,Private,Occupied,REAP Bronze,Wood,4,12.86,3779,831-1;831-2;831-3;831-4;831-5,0,,Updated Footprint,GISSTUD2,20190514215501,RACHELW,20230110211725,Duplex/Townhouse,,,,B5,,-123.25321,49.271317
VBL10417,Thames Court - Building 1,THAC1,Complete,19920724,Housing,,UNA,Hampton,Private,Occupied,,Wood,5,16.25,4978,502;502-13;502-14,0,,new GBA taken from spreadsheet,RACHELW,20190809165721,RACHELW,20230110211725,AptLess5Storey,,,,B5,,-123.235775,49.257255
VBL10428,Conservatory - Townhouses,CSY1,PreConstruction,,Housing,,UNA,Wesbrook,Private,Unoccupied,REAP Gold,Concrete,3,,757,603-1,0,,,RACHELW,20200203175430,RACHELW,20230110211725,Duplex/Townhouse,,,,B5,,-123.232103,49.255839
VBL10427,Conservatory - Highrise,CSY2,PreConstruction,,Housing,,UNA,Wesbrook,Private,Unoccupied,REAP Gold,Concrete,20,,16729,603,0,,,RACHELW,20200203175521,RACHELW,20230110211725,Apt5StoreyPlus,,,,B5,,-123.231514,49.256042
VBL10102,P. A. Woodward Instructional Resources Centre,IRC,Complete,19720101,Academic,,UBC,Academic,UBC,Occupied,,Concrete,6,26.98,10842,473;475,0,,,,,RACHELW,20221115222549,Unspecified,Poor,,UBC,B2,,-123.246848,49.264822
VBL10318,UBC Hospital - Koerner Pavilion,KPAV,Complete,19800101,Services,Research,Non-UBC,Academic,VCH,Occupied,,Concrete,5,30.97,40372,463,0,,,,,RACHELW,20221115223028,Unspecified,,,Shared,B2,LeasedFromUBC,-123.245991,49.264151
VBL10449,Carey College Lot 40,CRYC1,PreConstruction,,Other,Housing,Non-UBC,Chancellor,Non-UBC,Unoccupied,,Wood,4,13.5,7625,,0,,,RACHELW,20220812172031,RACHELW,20230110211658,,,,,B3,LeasedFromUBC,-123.24857,49.271747
VBL10076,The Wesbrook - Townhouses,WSB2,Complete,20090101,Housing,,UNA,Wesbrook,Private,Occupied,REAP Silver,Concrete,3,7.32,1249,594,0,,new GBA taken from spreadsheet,GISSTUD2,20190514231851,RACHELW,20230110211725,Duplex/Townhouse,,,,B5,,-123.234205,49.254725
VBL10135,Eton - Highrise,ETN1,Complete,20190226,Housing,,UNA,Wesbrook,Private,Occupied,REAP Gold,Concrete,20,61.0833,22008,592,0,,,GISSTUD2,20190516182139,RACHELW,20230110211725,Apt5StoreyPlus,,,,B5,,-123.230561,49.25345
VBL10087,Aquatic Ecosystems Research Laboratory,AERL,Complete,20050826,Academic,,UBC,Academic,UBC,Occupied,LEED Gold,Concrete,6,19.33,5731,316,0,,,,,RACHELW,20221212194229,Unspecified,Fair,,UBC,B2,,-123.250977,49.26376
VBL10221,Michael Smith Laboratories,MSL,Complete,20040101,Academic,,UBC,Academic,UBC,Occupied,,Concrete,5,24.84,8477,083,1,,,,,RACHELW,20221212192308,Unspecified,Fair,,UBC,B2,,-123.250171,49.264577
VBL10137,Tapestry at Wesbrook Village - Building 1,TAP1,Complete,20100604,Housing,Commercial,UNA,Wesbrook,Private,Occupied,,Concrete,7,25.04722,14820,593-1,0,,new GBA taken from spreadsheet,GISSTUD2,20190514233927,RACHELW,20230110211725,Apt5StoreyPlus,,,,B5,,-123.235014,49.254742
VBL10182,Tapestry at Wesbrook Village - Building 2,TAP2,Complete,20100604,Housing,Commercial,UNA,Wesbrook,Private,Occupied,,Concrete,7,26.3973,4940,593-2,0,,new GBA taken from spreadsheet,GISSTUD2,20190514233927,RACHELW,20230110211725,Apt5StoreyPlus,,,,B5,,-123.234517,49.254147
VBL10183,Academy - Highrise,ACD1,Complete,20140107,Housing,,UNA,Wesbrook,Private,Occupied,REAP Gold,Concrete,20,59.87,12086,596,0,,new GBA taken from spreadsheet,GISSTUD2,20190514232634,RACHELW,20230110211725,Apt5StoreyPlus,,,,B5,,-123.233051,49.255577
VBL10184,The Wesbrook - Highrise,WSB1,Complete,20090101,Housing,,UNA,Wesbrook,Private,Occupied,REAP Silver,Concrete,19,52.26,11612,594,0,,new GBA taken from spreadsheet,GISSTUD2,20190514231851,RACHELW,20230110211725,Apt5StoreyPlus,,,,B5,,-123.234509,49.255096
VBL10187,Sage - Highrise,SAG1,Complete,20110704,Housing,,UNA,Wesbrook,Private,Occupied,REAP Silver,Concrete,22,59.39326,12230,595,0,,new GBA taken from spreadsheet,GISSTUD2,20190514232334,RACHELW,20230110211725,Apt5StoreyPlus,,,,B5,,-123.233708,49.255264
VBL10172,Sail - Building 1,SAL1,Complete,20130101,Housing,,UNA,Wesbrook,Private,Occupied,REAP Platinum,Wood,7,22.04939,8503,705,0,,new GBA taken from spreadsheet,RACHELW,20190513220022,RACHELW,20230110211725,Apt5StoreyPlus,,,,B5,,-123.235232,49.252238
VBL10188,Sage - Townhouses,SAG2,Complete,20110704,Housing,,UNA,Wesbrook,Private,Occupied,REAP Silver,Concrete,2,7.9658,1514,595,0,,new GBA taken from spreadsheet,GISSTUD2,20190514232334,RACHELW,20230110211725,Duplex/Townhouse,,,,B5,,-123.233501,49.254987
VBL10193,Fairview Crescent Residence - Building 1,FAR1,Complete,19850101,StudentHousing,,UBC,Academic,SHHS,Occupied,,Wood,4,13.32157,11023,007-35;007-34;007-33;007-32;007-31;007-30;007-29;007-28;007-27;007-26;007-10;007-07;007-06;007-05;007-04;007-09;007-08;007-03;007-02;007-01,1,,,GISSTUD2,20190606184915,RACHELW,20230110211725,Duplex/Townhouse,Poor,,UBC,B5,,-123.239653,49.26332
VBL10198,Fairview Crescent Residence - Building 2,FAR2,Complete,19850101,StudentHousing,,UBC,Academic,SHHS,Occupied,,Wood,4,11.60937,9047,007-25;007-24;007-23;007-22;007-21;007-20;007-19;007-18;007-17;007-16;007-15;007-14;007-13;007-12;007-11,0,,,GISSTUD2,20190606184915,RACHELW,20230110211725,Duplex/Townhouse,Poor,,UBC,B5,,-123.239796,49.263001
VBL10199,Academy - Townhouses,ACD2,Complete,20140107,Housing,,UNA,Wesbrook,Private,Occupied,REAP Gold,Concrete,2,6.92942,732,596,0,,new GBA taken from spreadsheet,GISSTUD2,20190514232634,RACHELW,20230110211725,Duplex/Townhouse,,,,B5,,-123.232786,49.255183
VBL10210,Binning Tower - Highrise,BINH,Complete,20160505,Housing,,UNA,Wesbrook,Private,Occupied,REAP Gold,Concrete,23,57.4637,17684,598,0,,new GBA taken from spreadsheet,GISSTUD2,20190516172718,RACHELW,20230110211725,Apt5StoreyPlus,,,,B5,,-123.231374,49.255441
VBL10024,Power House,POWR,Complete,19250101,Operations,,UBC,Academic,UBC,Unoccupied,,Concrete,4,15.89002,2448,724;724-1;724-2;724-3;725,0,,,,,RACHELW,20221207183928,Unspecified,Critical,,UBC,B3,,-123.254802,49.26521
VBL10241,The Laureates - Highrise,LAR1,Complete,20161223,Housing,,UNA,Wesbrook,Private,Occupied,REAP Gold,Concrete,25,57.88935,17190,589-1,0,,,GISSTUD2,20190514233055,RACHELW,20230110211725,Apt5StoreyPlus,,,,B5,,-123.230797,49.254108
VBL10244,Eton - Townhouses,ETN3,Complete,20190226,Housing,,UNA,Wesbrook,Private,Occupied,REAP Gold,Concrete,2,6.6825,1252,592,0,,,GISSTUD2,20190516182100,RACHELW,20230110211725,Duplex/Townhouse,,,,B5,,-123.231519,49.253536
VBL10253,Thames Court - Townhouses,THAC2,Complete,19920724,Housing,,UNA,Hampton,Private,Occupied,,Wood,2,12.65,8816,502-1;502-2;502-3;502-4;502-5;502-6;502-7;502-8;502-9;502-10;502-11;502-12;502-15;502-16;502-17,0,,new GBA taken from spreadsheet,,,RACHELW,20230110211725,Duplex/Townhouse,,,,B5,,-123.236162,49.257073
VBL10261,The Laureates - Apartment,LAR2,Complete,20170131,Housing,,UNA,Wesbrook,Private,Occupied,REAP Gold,Wood,7,15.85908,5196,589-2,0,,,GISSTUD2,20190514233136,RACHELW,20230110211725,Apt5StoreyPlus,,,,B5,,-123.231755,49.254211
VBL10264,Ivy on the Park - Townhouses,IVYT,Complete,20210816,Housing,,UNA,Wesbrook,Private,Occupied,REAP Gold Plus,Concrete,4,13.99,3929,597,0,,Wesbrook Place Lot 8,GISSTUD2,20190516173521,RACHELW,20230110211725,Duplex/Townhouse,,,,B5,,-123.231834,49.254768
VBL10265,Ivy on the Park - Highrise,IVYH,Complete,20210816,Housing,,UNA,Wesbrook,Private,Occupied,REAP Gold Plus,Concrete,22,54.74654,17992,597,0,,Wesbrook Place Lot 8,GISSTUD2,20190516173353,RACHELW,20230110211725,Apt5StoreyPlus,,,,B5,,-123.230999,49.254718
VBL10271,Chancellor Hall - Townhouses,CHHT,Complete,20070101,Housing,,UNA,Chancellor,Private,Occupied,,Wood,4,9.88747,364,823,0,,new GBA taken from spreadsheet,GISSTUD2,20190514222145,RACHELW,20230110211725,Duplex/Townhouse,,,,B5,,-123.250355,49.272187
VBL10277,Coast - Townhouses,COST,Complete,20090101,Housing,,UNA,Chancellor,Private,Occupied,REAP Bronze,Wood,3,6.52,710,832-3,0,,,GISSTUD2,20190514215859,RACHELW,20230110211725,Duplex/Townhouse,,,,B5,,-123.253054,49.271069
VBL10281,West Hampstead - Building 1,WHM1,Complete,19931208,Housing,,UNA,Hampton,Private,Occupied,,Wood,4,18.49195,5384,501-12,0,,new GBA taken from spreadsheet,GISSTUD2,20190514231435,RACHELW,20230110211725,AptLess5Storey,,,,B5,,-123.235241,49.257587
VBL10290,Chancellor Hall - Apartment,CHHA,Complete,20070529,Housing,,UNA,Chancellor,Private,Occupied,,Concrete,7,18.14,5809,824,0,,new GBA taken from spreadsheet,GISSTUD2,20190514222145,RACHELW,20230110211725,AptLess5Storey,,,,B5,,-123.250461,49.271895
VBL10291,Folio - Duplexes,FOL3,Complete,20050101,Housing,,UNA,Chancellor,Private,Occupied,,Wood,4,12.51664,1944,827-1;827-2;827-3;827-4,0,,new GBA taken from spreadsheet,GISSTUD2,20190514222145,RACHELW,20230110211725,Duplex/Townhouse,,,,B5,,-123.250604,49.272415
VBL10299,Binning Tower - Townhouses,BINT,Complete,20160505,Housing,,UNA,Wesbrook,Private,Occupied,REAP Gold,Concrete,3,7.55,1627,598,0,,new GBA taken from spreadsheet,GISSTUD2,20190516172718,RACHELW,20230110211725,Duplex/Townhouse,,,,B5,,-123.231641,49.255275
VBL10309,Folio - Apartment,FOL1,Complete,20060101,Housing,,UNA,Chancellor,Private,Occupied,,Concrete,5,18.34,6015,825;825-1;825-2,0,,new GBA taken from spreadsheet,GISSTUD2,20190514214608,RACHELW,20230110211725,AptLess5Storey,,,,B5,,-123.24975,49.272098
VBL10316,Folio - Townhouses,FOL2,Complete,20060101,Housing,,UNA,Chancellor,Private,Occupied,,Wood,4,10.26,185,826,0,,new GBA taken from spreadsheet,GISSTUD2,20190514214608,RACHELW,20230110211725,Duplex/Townhouse,,,,B5,,-123.250191,49.272249
VBL10336,Prodigy - Building 2,PRD2,Complete,20161123,Housing,,UNA,Wesbrook,Private,Occupied,REAP Gold,Wood,8,24.23,7163,711,0,,new GBA taken from spreadsheet,GISSTUD2,20190514235024,RACHELW,20230110211725,Apt5StoreyPlus,,,,B5,,-123.236605,49.251632
VBL10349,Prodigy - Building 1,PRD1,Complete,20161123,Housing,,UNA,Wesbrook,Private,Occupied,REAP Gold,Wood,8,23.51,9960,711,0,,new GBA taken from spreadsheet,GISSTUD2,20190514235024,RACHELW,20230110211725,Apt5StoreyPlus,,,,B5,,-123.235957,49.251667
VBL10239,Pathways - East Building,PTHE,Complete,20080227,Housing,,UNA,Wesbrook,Private,Occupied,REAP Gold,Steel,5,15.44182,5110,588-2,0,,,GISSTUD2,20190514233420,RACHELW,20230110211657,AptLess5Storey,,,,B5,,-123.23283,49.254669
VBL10240,Pathways - West Building,PTHW,Complete,20080227,Housing,,UNA,Wesbrook,Private,Occupied,REAP Gold,Steel,5,17.86,7095,588-1,0,,,GISSTUD2,20190514233510,RACHELW,20230110211657,AptLess5Storey,,,,B5,,-123.23382,49.254401
VBL10263,Walter H. Gage Residence - Commonsblock,WGR1,Complete,19720101,Services,StudentHousing,UBC,Academic,SHHS,Occupied,LEED Gold,Concrete,2,13.24,5156,869-1,0,,,GISSTUD2,20190514202702,RACHELW,20230110211657,Unspecified,Poor,,UBC,B2,,-123.249831,49.269529
VBL10273,Child Care Services - Kittiwake/Salal,CCS2,Complete,20080101,Services,,UBC,Academic,SHHS,Occupied,,Wood,1,6.74911,851,205,1,,,GISSTUD2,20190514224714,RACHELW,20230110211657,Unspecified,Good,,UBC,B2,,-123.235278,49.259997
VBL10055,Rugby Pavilion,RUGB,Complete,19630101,Athletics,,UBC,Academic,Athletics,Occupied,,Wood,1,3.12,367,760,0,,,,,TOML,20220224175718,Unspecified,Critical,,UBC,B3,,-123.244014,49.258676
VBL10060,HR MacMillan Building,MCML,Complete,19670101,Academic,,UBC,Academic,UBC,Occupied,,Concrete,4,19.55714,14342,386,0,,,,,TOML,20220224175718,Unspecified,Poor,,UBC,B2,,-123.250746,49.261066
VBL10062,Chemical and Biological Engineering Building,CHBE,Complete,20050906,Academic,,UBC,Academic,UBC,Occupied,,Concrete,7,27.00832,11723,300,0,,,,,TOML,20220224175718,Unspecified,Fair,,UBC,B2,,-123.247066,49.262481
VBL10064,Wayne and William White Engineering Design Centre,EDC,Complete,20110808,Academic,,UBC,Academic,UBC,Occupied,,Concrete,3,14.34,1922,301,0,,,,,TOML,20220224175718,Unspecified,Good,,UBC,B2,,-123.248164,49.262333
VBL10298,Argyll House West,ARGW,Complete,20060519,Housing,,UNA,Chancellor,Private,Occupied,,Concrete,8,24.35,6921,837,0,,new GBA taken from spreadsheet,,,TOML,20220224175718,Apt5StoreyPlus,,,,B5,,-123.251327,49.270788
VBL10206,The Stratford,STRA,Complete,19980717,Housing,,UNA,Hampton,Private,Occupied,,Concrete,13,34.31,6848,506-1,0,,new GBA taken from spreadsheet,,,TOML,20220224175718,Apt5StoreyPlus,,,,B5,,-123.233455,49.259635
VBL10085,Fred Kaiser Building,KAIS,Complete,20041012,Academic,,UBC,Academic,UBC,Occupied,,Concrete,5,20.7,12792,313,0,,,,,TOML,20220224175718,Unspecified,Fair,,UBC,B2,,-123.250082,49.262371
VBL10094,Medical Sciences Block C,MEDC,Complete,19610101,Academic,,UBC,Academic,UBC,Occupied,,Concrete,5,20.81,4017,525-3;523-3,0,,,,,TOML,20220224175718,Unspecified,Poor,,UBC,B2,,-123.247871,49.264969
VBL10095,Neville Scarfe Building,SCRF,Complete,19620101,Academic,,UBC,Academic,UBC,Occupied,,OtherMixed,6,21.13,19366,232;233;234;240-1;240-2,1,,,,,TOML,20220224175718,Unspecified,Poor,,UBC,B2,,-123.253091,49.263965
VBL10097,Lower Mall Header House,LMHH,Complete,19670101,Operations,,UBC,Academic,UBC,Occupied,,Concrete,3,9.91,943,024-5;024-3;024-6,1,,,,,TOML,20220224175718,Unspecified,Poor,,UBC,B3,,-123.254843,49.260527
VBL10111,Life Sciences Centre,LSC,Complete,20040820,Academic,,UBC,Academic,UBC,Occupied,LEED Gold,Concrete,8,31.9975,59596,529,0,,GBA from OSIS,,,TOML,20220224175718,Unspecified,Fair,,UBC,B2,,-123.245112,49.262548
VBL10113,Thunderbird Parkade,PART,Complete,20070119,Parking,,UBC,Academic,Parking,Occupied,,Concrete,5,18.25709,60060,551,0,,GBA from OSIS,,,TOML,20220224175718,Parking,Poor,,UBC,B4,,-123.243062,49.261659
VBL10116,St. John's College,STJC,Complete,19970101,StudentHousing,StudentHousing,UBC,Academic,SHHS,Occupied,,Wood,3,12.52361,17651,822-1;822-2;822-3,0,,,,,TOML,20220224175718,Unspecified,Critical,,UBC,B5,,-123.25679,49.262595
VBL10119,Forest Sciences Centre,FSC,Complete,19980101,Academic,,UBC,Academic,UBC,Occupied,,OtherMixed,6,25.59,22459,353,0,,,,,TOML,20220224175718,Unspecified,Fair,,UBC,B2,,-123.247827,49.260597
VBL10120,Friedman Building,FRDM,Complete,19610101,Academic,,UBC,Academic,UBC,Occupied,LEED Gold,Concrete,5,21.05765,6073,525-2;523-2,0,,,,,TOML,20220224175718,Unspecified,Good,,UBC,B2,,-123.246237,49.265368
VBL10121,Thunderbird Residence - Coast,THR4,Complete,19950101,StudentHousing,,UBC,Academic,SHHS,Occupied,,Concrete,4,14.22,5163,783;783-1,0,,,GISSTUD2,20190514200023,TOML,20220224175718,AptLess5Storey,Poor,,UBC,B5,,-123.250361,49.25897
VBL10122,Thunderbird Residence - Hazelton,THR5,Complete,19950101,StudentHousing,,UBC,Academic,SHHS,Occupied,,Concrete,4,15.51935,5615,784;784-1,0,,,GISSTUD2,20190514200510,TOML,20220224175718,AptLess5Storey,Poor,,UBC,B5,,-123.250846,49.259569
VBL10123,Staging Environmental Research Centre,SERC,Complete,20100101,Operations,,UBC,Academic,UBC,Occupied,,Steel,1,4.90044,321,767,0,,,,,TOML,20220224175718,Outbuildings,Good,,UBC,B3,,-123.228053,49.245383
VBL10098,Thunderbird Residence - Monashee,THR2,Complete,19950101,StudentHousing,,UBC,Academic,SHHS,Occupied,,Concrete,4,11.69,5213,781;781-1,0,,,GISSTUD2,20190514195735,TOML,20220224175718,AptLess5Storey,Poor,,UBC,B5,,-123.247557,49.259933
VBL10099,Hector J. MacLeod Building,MCLD,Complete,19630101,Academic,,UBC,Academic,UBC,Occupied,,Concrete,4,16.58,7282,312,0,,,,,TOML,20220224175718,Unspecified,Poor,,UBC,B2,,-123.249401,49.261716
VBL10101,Music Building,MUSC,Complete,19670101,Academic,,UBC,Academic,UBC,Occupied,,Concrete,4,22.7353,6593,575,0,,,,,TOML,20220224175718,Unspecified,Poor,,UBC,B1,,-123.256781,49.267437
VBL10104,Allard Hall,ALRD,Complete,20110829,Academic,,UBC,Academic,UBC,Occupied,LEED Gold,Concrete,5,25.52,15000,482,1,,,,,TOML,20220224175718,Unspecified,Good,,UBC,B2,,-123.253297,49.270044
VBL10107,School of Population & Public Health,SPPH,Complete,19790101,Academic,,UBC,Academic,UBC,Occupied,,Concrete,5,17.45539,8280,513,0,,,,,TOML,20220224175718,Unspecified,Poor,,UBC,B2,,-123.248416,49.26424
VBL10108,Place Vanier Residence - Commonsblock,VNR03,Complete,19600101,Services,StudentHousing,UBC,Academic,SHHS,Occupied,,Concrete,3,13.98,5074,544,1,,,GISSTUD2,20190514205559,TOML,20220224175718,Unspecified,Poor,,UBC,B2,,-123.258583,49.26465
VBL10144,Hawthorn Green,HAWT,Complete,20040820,Housing,,UNA,Hawthorn,Private,Occupied,,Wood,3,15.08571,2051,618,0,,new GBA taken from spreadsheet,,,TOML,20220224175718,Duplex/Townhouse,,,,B5,,-123.248586,49.258174
VBL10436,Acadia Park Residence - Tennis Crescent,APR5,Complete,19880101,StudentHousing,,UBC,Academic,SHHS,Occupied,,Wood,3,11.08,841,009-08;010-07;010-08;010-09;010-10,0,,GBA from OSIS,RACHELW,20200716183842,TOML,20220224175718,Duplex/Townhouse,,,UBC,B5,,-123.237716,49.263483
VBL10406,Environmental Services Facility - PCB Equipment Storage,ENV5,Complete,19890101,Operations,,UBC,Academic,UBC,Temporary,,OtherMixed,1,2.69345,150,143,0,,,GISSTUD2,20190513230425,TOML,20220224175718,Outbuildings,,,UBC,B3,,-123.228049,49.243362
VBL10408,Environmental Services Facility - Natural Gas Station,ENV3,Complete,20141107,Operations,,UBC,Academic,UBC,Occupied,,OtherMixed,1,0.26989,65,146,0,,,GISSTUD2,20190513225734,TOML,20220224175718,Outbuildings,,,UBC,B3,,-123.228203,49.24362
VBL10414,Granite Terrace - Commercial,GRT2,Complete,20090902,Commercial,,UNA,Wesbrook,UBCPT,Occupied,REAP Gold,Wood,3,15.12,1281,686,0,,new GBA taken from spreadsheet,GISSTUD2,20190717210931,TOML,20220224175718,Unspecified,,,,B5,,-123.236109,49.255066
VBL10129,Donald Rix Building,RIX,Complete,20000101,Administrative,Research,Non-UBC,Academic,UBCPT,Occupied,,Concrete,4,20.58,5008,458,0,,,,,TOML,20220224175718,Unspecified,,,,B2,LeasedFromUBC,-123.2463,49.261972
VBL10103,Djavad Mowafaghian Centre for Brain Health,CBH,Complete,20131121,Services,Research,Non-UBC,Academic,VCH,Occupied,LEED Gold,Concrete,6,29.99,13861,465,0,,Add GRP_ID,,,TOML,20220224175718,Unspecified,,,Shared,B2,LeasedFromUBC,-123.244569,49.264275
VBL10243,NRC Institute for Fuel Cell Innovation,NRC,Complete,20060606,Research,,Non-UBC,Academic,Non-UBC,Occupied,,Concrete,2,13.75,6598,591,0,,GBA from RRS,,,TOML,20220224175718,Unspecified,,,,B2,LeasedFromUBC,-123.232287,49.245182
VBL10302,Vancouver School of Theology,VST,Complete,20041030,Other,,Non-UBC,Chancellor,Non-UBC,Occupied,,Concrete,5,14.84,2553,838,0,,,,,TOML,20220224175718,Unspecified,,,,B5,LeasedFromUBC,-123.251044,49.270391
VBL10334,UBC Hospital - Detwiller Pavilion,DPAV,Complete,19680101,Services,Research,Non-UBC,Academic,VCH,Occupied,,Concrete,7,28.93,12963,537;537-1,0,,,,,TOML,20220224175718,Unspecified,,,Shared,B2,LeasedFromUBC,-123.244471,49.26356
VBL10114,St. Andrew's Hall,STH,Complete,19960101,Housing,,Non-UBC,Chancellor,Non-UBC,Occupied,,Wood,4,17.71703,6774,817-1;817-2;817-3;817-4,1,,,GISSTUD2,20190514223621,TOML,20220224175718,AptLess5Storey,,,,B5,LeasedFromUBC,-123.251748,49.270143
VBL10117,Fraser Hall,FRAS,Complete,20060317,StudentHousing,,UBC,EastCampus,SHHS,Occupied,REAP Bronze,Wood,5,14.85445,1115,553,0,,new GBA taken from spreadsheet,,,TOML,20220224175718,AptLess5Storey,,,UBC,B5,,-123.240766,49.261506
VBL10163,Abdul Ladha Science Student Centre,ALSC,Complete,20061221,Services,Academic,UBC,Academic,UBC,Occupied,,Wood,2,11.51,661,654,0,,,,,TOML,20220224175718,Unspecified,Fair,,UBC,B3,,-123.251356,49.266083
VBL10174,Green College - B East,GRN5,Complete,19940101,StudentHousing,,UBC,Academic,SHHS,Occupied,,Wood,4,14.3,1181,416,0,,,GISSTUD2,20190514204533,TOML,20220224175718,AptLess5Storey,Poor,,UBC,B5,,-123.25601,49.270843
VBL10176,Green College - D Coach House,GRN6,Complete,19300101,StudentHousing,Other,UBC,Academic,SHHS,Occupied,,Wood,3,5.9007,104,412,0,,,GISSTUD2,20190606173848,TOML,20220224175718,Unspecified,Poor,,UBC,B5,,-123.256534,49.271144
VBL10177,Liu Institute for Global Issues,LIU,Complete,20000101,Academic,,UBC,Academic,UBC,Occupied,,Concrete,4,11.19421,1713,496,0,,,,,TOML,20220224175718,Unspecified,Fair,,UBC,B2,,-123.259267,49.267549
VBL10180,Green College - Guest House,GRN9,Complete,19940101,StudentHousing,Housing,UBC,Academic,SHHS,Occupied,,Wood,3,10.84003,237,417,0,,,GISSTUD2,20190514204656,TOML,20220224175718,AptLess5Storey,Poor,,UBC,B5,,-123.256515,49.27086
VBL10181,The Barn - Owl Child Care,BARN,Complete,19250101,Services,,UBC,Academic,SHHS,Occupied,,OtherMixed,2,11.17,304,051,0,,,,,TOML,20220224175718,Unspecified,Poor,,UBC,B2,,-123.251115,49.261931
VBL10190,Green College - Principal's Residence,GRN10,Complete,19940101,StudentHousing,Other,UBC,Academic,SHHS,Occupied,,Wood,3,11.55736,302,419,0,,,GISSTUD2,20190514204818,TOML,20220224175718,Duplex/Townhouse,Critical,,UBC,B5,,-123.256949,49.270911
VBL10192,Main Substation,MSUB,Complete,19750101,Operations,,UBC,Academic,UBC,Occupied,,Concrete,1,4.50938,345,789;789-1,0,,,,,TOML,20220224175718,Outbuildings,Critical,,UBC,B3,,-123.24437,49.261347
VBL10067,Henry Angus Building,ANGU,Complete,20090903,Academic,,UBC,Academic,UBC,Occupied,,Concrete,10,31.27,22458,023;026;023-1,1,,,,,TOML,20220224175718,Unspecified,Fair,,UBC,B2,,-123.253876,49.265106
VBL10068,Coal and Mineral Processing Laboratory,MINL,Complete,20110902,Academic,,UBC,Academic,UBC,Occupied,,Concrete,3,14.3125,1021,184;184-1,1,,,,,TOML,20220224175718,Unspecified,Poor,,UBC,B2,,-123.252039,49.261169
VBL10070,David Strangway Building,STRG,Complete,20051223,Academic,Administrative,UBC,Academic,UBCPT,Occupied,,Concrete,6,28.0578,11090,199,0,,,,,TOML,20220224175718,Unspecified,Fair,,UBC,B2,LeasedFromUBC,-123.246167,49.265838
VBL10073,Engineering Student Centre,ESC,Complete,20150909,Academic,,UBC,Academic,UBC,Occupied,LEED Gold,Wood,2,7.81,1076,310,0,,,,,TOML,20220224175718,Unspecified,Good,,UBC,B2,,-123.249278,49.262188
VBL10074,Spirit Park Apartments,SPPA,Complete,19930101,StudentHousing,,UBC,Academic,SHHS,Occupied,,Concrete,4,15.88117,6503,770-1;770-2;770-3,1,,,,,TOML,20220224175718,AptLess5Storey,Fair,,UBC,B5,,-123.239374,49.261491
VBL10075,Sopron House,SOPR,Complete,19910101,StudentHousing,,UBC,Academic,SHHS,Occupied,,Wood,4,14.15136,6587,451,1,,,,,TOML,20220224175718,AptLess5Storey,Poor,,UBC,B5,,-123.23534,49.262179
VBL10077,South Campus Warehouse,SCWH,Complete,19470101,Operations,,UBC,Academic,UBC,Occupied,,Wood,1,10.59662,2583,638,0,,,,,TOML,20220224175718,Unspecified,Poor,,UBC,B3,,-123.231863,49.246256
VBL10078,Institute for Computing Information and Cognitive Systems / Computer Science,ICCS,Complete,19930101,Academic,,UBC,Academic,UBC,Occupied,,Concrete,8,29.68,19643,166;165,0,,,,,TOML,20220224175718,Unspecified,Poor,,UBC,B2,,-123.248832,49.261174
VBL10079,Thunderbird Residence - Cassiar,THR1,Complete,19950101,StudentHousing,,UBC,Academic,SHHS,Occupied,,Concrete,4,13.31,21101,780;780-1,0,,,GISSTUD2,20190514195608,TOML,20220224175718,AptLess5Storey,Poor,,UBC,B5,,-123.246685,49.260243
VBL10080,Irving K. Barber Learning Centre,IBLC,Complete,19270101,Academic,,UBC,Academic,UBC,Occupied,,Concrete,5,26.87,27316,516,0,,,,,TOML,20220224175718,Unspecified,Good,,UBC,B1,,-123.252738,49.267595
VBL10081,Jack Bell Building for the School of Social Work,SOWK,Complete,19920101,Academic,,UBC,Academic,UBC,Occupied,,Steel,4,18.22909,2712,750,0,,,,,TOML,20220224175718,Unspecified,Poor,,UBC,B2,,-123.2551,49.264474
VBL10083,Continuing Studies Building,CSB,Complete,19970101,Academic,Administrative,UBC,Academic,UBC,Occupied,,OtherMixed,3,11.69916,3813,160,0,,,,,TOML,20220224175718,Unspecified,Poor,,UBC,B2,,-123.255014,49.263338
VBL10084,Biomedical Research Centre,BRC,Complete,20050525,Academic,,UBC,Academic,UBC,Occupied,,Concrete,4,21.85126,4798,461,0,,,,,TOML,20220224175718,Unspecified,Poor,,UBC,B2,,-123.247194,49.264116
VBL10304,West Mall Swing Space Building,SWNG,Complete,20060103,Academic,,UBC,Academic,UBC,Occupied,,Concrete,5,23.63,5295,901,0,,,,,TOML,20220224175718,Unspecified,Fair,,UBC,B2,,-123.254385,49.262795
VBL10306,Child Care Services Administration Building,CCSA,Complete,19900101,Services,,UBC,Academic,SHHS,Occupied,,Wood,1,6.85,1205,155,1,,,,,TOML,20220224175718,Unspecified,Poor,,UBC,B2,,-123.234257,49.26093
VBL10307,Doug Mitchell Thunderbird Sports Centre,THUN,Complete,20080703,Athletics,,UBC,Academic,Athletics,Occupied,,Wood,3,21.51219,36357,868;868-1,0,,,,,TOML,20220224175718,Unspecified,Good,,UBC,B1,,-123.241931,49.260341
VBL10308,Acadia House,ACAH,Complete,19910101,StudentHousing,,UBC,Academic,SHHS,Occupied,,Wood,2,8.367,2855,450-1;450-2;450-3,1,,,,,TOML,20220224175718,AptLess5Storey,Poor,,UBC,B5,,-123.235908,49.26288
VBL10315,Morris and Helen Belkin Art Gallery,BART,Complete,19950101,Services,Academic,UBC,Academic,UBC,Occupied,,Steel,3,12.29743,1504,568,0,,,,,TOML,20220224175718,Unspecified,Poor,,UBC,B1,,-123.25619,49.268169
VBL10323,Buchanan Building,BUCH,Complete,19580101,Academic,,UBC,Academic,UBC,Occupied,LEED Gold,Concrete,5,15.26,21868,121-1;121-2;121-3;122-1;122-2,1,,,,,TOML,20220224175718,Unspecified,Poor,,UBC,B2,,-123.254441,49.268701
VBL10324,Buchanan Tower,BUTO,Complete,19720101,Academic,,UBC,Academic,UBC,Occupied,,Concrete,13,47.52692,9863,120,0,,,,,TOML,20220224175718,Unspecified,Poor,,UBC,B2,,-123.253487,49.268579
VBL10200,Green College - Admin,GRN4,Complete,19940101,StudentHousing,Administrative,UBC,Academic,SHHS,Occupied,,Wood,2,5.89771,187,418,0,,,GISSTUD2,20190514204410,TOML,20220224175718,Unspecified,Poor,,UBC,B5,,-123.256308,49.270987
VBL10201,Mary Bollert Hall,MBOL,Complete,19500101,Academic,,UBC,Academic,UBC,Occupied,,Concrete,3,8.90813,1318,614,0,,,,,TOML,20220224175718,Unspecified,Critical,,UBC,B2,,-123.25602,49.270572
VBL10204,Anthropology and Sociology Building,ANSO,Complete,19750101,Academic,,UBC,Academic,UBC,Occupied,,Concrete,4,11.8925,6220,048;876-1;876-2;880,1,,,,,TOML,20220224175718,Unspecified,Poor,,UBC,B2,,-123.257691,49.270316
VBL10209,Theatre-Film Production Building,TFPB,Complete,19250101,Academic,,UBC,Academic,UBC,Occupied,,Wood,2,13.78,772,036;036-1,0,,,,,TOML,20220224175718,Unspecified,Critical,,UBC,B2,,-123.253928,49.263869
VBL10214,Thunderbird Stadium,STAD,Complete,19670101,Athletics,,UBC,Academic,Athletics,Occupied,,Concrete,2,16.07,3156,785,0,,,,,TOML,20220224175718,Unspecified,Poor,,UBC,B1,,-123.244579,49.254767
VBL10215,Thunderbird Residence - Selkirk,THR3,Complete,19950101,StudentHousing,,UBC,Academic,SHHS,Occupied,,Concrete,4,13.54501,5117,782;782-1;782-A,1,,Dif shape on CAD,GISSTUD2,20190514200330,TOML,20220224175718,AptLess5Storey,Poor,,UBC,B5,,-123.249493,49.259278
VBL10216,Mathematics Annex,MATX,Complete,19240101,Academic,,UBC,Academic,UBC,Occupied,,Wood,2,11.03445,1481,519,0,,,,,TOML,20220224175718,Unspecified,Critical,,UBC,B2,,-123.254848,49.266103
VBL10223,Totem Field Studios,TFS,Complete,19630101,Academic,,UBC,Academic,UBC,Occupied,,Wood,2,9.77439,1187,668;668-1,0,,,,,TOML,20220224175718,Unspecified,Poor,,UBC,B2,,-123.249001,49.256128
VBL10227,Asian Centre,ACEN,Complete,19750101,Academic,,UBC,Academic,UBC,Occupied,,Concrete,5,23.66056,4926,046,0,,,,,TOML,20220224175718,Unspecified,Poor,,UBC,B2,,-123.25871,49.266752
VBL10228,Auditorium Annexes,AUDX,Complete,19690101,Academic,,UBC,Academic,UBC,Occupied,,Wood,2,9.67894,2431,863-2;045,1,,,,,TOML,20220224175718,Unspecified,Critical,,UBC,B2,,-123.256625,49.266582
VBL10229,Mathematics Building,MATH,Complete,19250101,Academic,,UBC,Academic,UBC,Occupied,,Wood,3,11.83,4520,518,0,,,,,TOML,20220224175718,Unspecified,Critical,,UBC,B2,,-123.255556,49.26645
VBL10124,Stores Road Annex,STRX,Complete,19250101,Academic,,UBC,Academic,UBC,Occupied,,Wood,3,11.14,383,669,0,,,,,TOML,20220224175718,Unspecified,Critical,,UBC,B2,,-123.252359,49.261667
VBL10125,Student Recreation Centre,SRC,Complete,19950101,Athletics,,UBC,Academic,Athletics,Occupied,,Concrete,2,19.24334,4963,774,0,,,,,TOML,20220224175718,Unspecified,Poor,,UBC,B1,,-123.248976,49.268304
VBL10130,Dorothy Somerset Studios,DSOM,Complete,19250101,Academic,,UBC,Academic,UBC,Occupied,,Wood,2,13.77421,1823,320,0,,RENEW,,,TOML,20220224175718,Unspecified,Critical,,UBC,B1,,-123.254584,49.264696
VBL10131,Douglas T. Kenny Building,KENN,Complete,19830101,Academic,,UBC,Academic,UBC,Occupied,,Concrete,4,23.2237,8742,732,0,,,,,TOML,20220224175718,Unspecified,Poor,,UBC,B2,,-123.253841,49.263318
VBL10134,B.C. Binning Studios,BINN,Complete,19250101,Academic,,UBC,Academic,UBC,Occupied,,Wood,2,10.5625,1501,324,0,,,,,TOML,20220224175718,Unspecified,Poor,,UBC,B2,,-123.254871,49.264604
VBL10138,Old Administration Building,OAB,Complete,19240101,Administrative,,UBC,Academic,UBC,Occupied,,Wood,3,11.68,2266,017,0,,,,,TOML,20220224175718,Unspecified,Critical,,UBC,B2,,-123.255511,49.267105
VBL10139,Old Fire Hall,FIRE,Complete,19260101,Operations,,UBC,Academic,UBC,Occupied,,Wood,2,8.41287,378,380,0,,,,,TOML,20220224175718,Unspecified,Poor,,UBC,B3,,-123.255566,49.265032
VBL10145,Point Grey Apartments,PGRA,Complete,19930101,StudentHousing,,UBC,Academic,SHHS,Occupied,,Concrete,4,15.19,7184,771,0,,,,,TOML,20220224175718,AptLess5Storey,Critical,,UBC,B5,,-123.237998,49.259968
VBL10146,Ponderosa Office Annex A,PONA,Complete,19710101,Administrative,,UBC,Academic,UBC,Occupied,,Wood,3,11.38228,633,865-1,0,,,RACHELW,20190116175554,TOML,20220224175718,Unspecified,Critical,,UBC,B2,,-123.256382,49.265167
VBL10151,Ponderosa Office Annex E,PONE,Complete,19720101,Administrative,,UBC,Academic,UBC,Occupied,,Wood,2,8.75827,1004,871-2,0,,,RACHELW,20190116175554,TOML,20220224175718,Unspecified,Critical,,UBC,B2,,-123.256694,49.264675
VBL10152,Ponderosa Office Annex F,PONF,Complete,19720101,Administrative,,UBC,Academic,UBC,Occupied,,Wood,3,9.05897,826,871-3,0,,,RACHELW,20190116175554,TOML,20220224175718,Unspecified,Critical,,UBC,B2,,-123.257153,49.26492
VBL10153,Ponderosa Office Annex G,PONG,Complete,19810101,Administrative,,UBC,Academic,UBC,Occupied,,Wood,1,6.09539,597,873,0,,,RACHELW,20190116175554,TOML,20220224175718,Unspecified,Critical,,UBC,B2,,-123.256434,49.264507
VBL10155,Berwick Child Development Centre,BERW,Complete,19760101,Administrative,,UBC,Academic,SHHS,Occupied,,Wood,1,8.76,1598,858,0,,,,,TOML,20220224175718,Unspecified,Critical,,UBC,B5,,-123.238932,49.260588
VBL10161,War Memorial Gymnasium,MGYM,Complete,19500101,Athletics,,UBC,Academic,Athletics,Occupied,,Concrete,5,21.55,8945,428,0,,,,,TOML,20220224175718,Unspecified,Critical,,UBC,B1,,-123.24767,49.266767
VBL10162,Centre for Interactive Research on Sustainability,CIRS,Complete,20110831,Academic,,UBC,Academic,UBC,Occupied,LEED Platinum,OtherMixed,6,23.37,5691,633,0,,,,,TOML,20220224175718,Unspecified,Good,,UBC,B2,,-123.25308,49.262051
VBL10194,Green College - A North,GRN1,Complete,19940101,StudentHousing,,UBC,Academic,SHHS,Occupied,,Wood,3,13.46639,794,413,0,,,GISSTUD2,20190514204242,TOML,20220224175718,AptLess5Storey,Poor,,UBC,B5,,-123.255667,49.271155
VBL10195,UBC Botanical Garden Nursery - Workshop,BON2,Complete,19710101,Operations,,UBC,Academic,UBC,Occupied,,OtherMixed,1,5.1241,613,078;079;090,0,,,GISSTUD2,20190515174958,TOML,20220224175718,Outbuildings,Poor,,UBC,B3,,-123.234449,49.249533
VBL10196,UBC Botanical Garden Nursery - Greenhouses,BON1,Complete,19820101,Operations,,UBC,Academic,UBC,Occupied,,OtherMixed,1,7.9,1767,077-1;077-2,0,,,GISSTUD2,20190515174958,TOML,20220224175718,Outbuildings,Critical,,UBC,B3,,-123.234972,49.249451
VBL10266,Wesbrook Building,WESB,Complete,19490101,Academic,,UBC,Academic,UBC,Occupied,,Concrete,5,19.34,10664,864;867,0,,,,,TOML,20220224175718,Unspecified,Critical,,UBC,B2,,-123.249156,49.265251
VBL10270,Place Vanier Residence - Okanagan House,VNR08,Complete,19600101,StudentHousing,,UBC,Academic,SHHS,Occupied,,Concrete,5,13.48,2123,552,0,,,GISSTUD2,20190514205917,TOML,20220224175718,AptLess5Storey,Poor,,UBC,B5,,-123.257764,49.264345
VBL10278,David Lam Management Research Centre,DLAM,Complete,19920101,Academic,,UBC,Academic,UBC,Occupied,,Concrete,6,28.57,5517,490;490-1;490-2,1,,,,,TOML,20220224175718,Unspecified,Poor,,UBC,B2,,-123.25432,49.265712
VBL10282,Chan Centre for the Performing Arts,CHAN,Complete,19970101,Services,Academic,UBC,Academic,UBC,Occupied,,Concrete,6,29.76,8214,130,0,,,,,TOML,20220224175718,Unspecified,Fair,,UBC,B1,,-123.25511,49.269771
VBL10283,West Mall Annex,WMAX,Complete,19690101,Academic,,UBC,Academic,UBC,Occupied,,Wood,2,9.5803,1962,863-1,0,,,,,TOML,20220224175718,Unspecified,Critical,,UBC,B2,,-123.257156,49.26625
VBL10284,West Parkade,PARW,Complete,19920101,Parking,,UBC,Academic,Parking,Occupied,,Concrete,12,18.65,34775,900,0,,GBA from OSIS,,,TOML,20220224175718,Parking,Poor,,UBC,B4,,-123.255016,49.262597
VBL10285,Wood Drying Laboratory,WDL,Complete,19900101,Academic,Research,UBC,Academic,UBC,Occupied,,Wood,1,6.51,283,385,0,,,,,TOML,20220224175718,Unspecified,Poor,,UBC,B2,,-123.252249,49.261475
VBL10292,Iona Building,IONA,Complete,19290101,Academic,StudentHousing,UBC,Chancellor,UBC,Occupied,,Concrete,8,30.58492,7298,836,1,,,,,TOML,20220224175718,Unspecified,Good,,UBC,B2,,-123.250309,49.270988
VBL10296,Robert F. Osborne Centre - Unit 2,OSB2,Complete,19720101,Academic,,UBC,Academic,UBC,Occupied,,Concrete,2,7.54342,2740,431,0,,,GISSTUD2,20190513235122,TOML,20220224175718,Unspecified,Poor,,UBC,B2,,-123.244315,49.259976
VBL10301,Walter H. Gage Residence - Gage Apartments,WGR2,Complete,19840101,StudentHousing,,UBC,Academic,SHHS,Occupied,LEED Gold,Concrete,5,13.68,8046,874,0,,,GISSTUD2,20190514202740,TOML,20220224175718,AptLess5Storey,Fair,,UBC,B5,,-123.249022,49.270145
VBL10369,Place Vanier Residence - Tweedsmuir House,VNR13,Complete,19680101,StudentHousing,,UBC,Academic,SHHS,Occupied,,Concrete,5,12.28965,2189,545-2,0,,,GISSTUD2,20190514210235,TOML,20220224175718,AptLess5Storey,Critical,,UBC,B5,,-123.258301,49.263472
VBL10371,International House,INTL,Complete,19580101,Services,,UBC,Academic,UBC,Occupied,,Concrete,3,8.71,1142,472,0,,,,,TOML,20220224175718,Unspecified,Poor,,UBC,B2,,-123.25896,49.2678
VBL10374,Kids Club,KIDS,Complete,19850101,Services,,UBC,Academic,SHHS,Occupied,,OtherMixed,1,4.06,475,013,0,,,,,TOML,20220224175718,Unspecified,Critical,,UBC,B2,,-123.234805,49.261725
VBL10376,Ladner Clock Tower,CLCK,Complete,19680101,Services,,UBC,Academic,UBC,Occupied,,Concrete,1,33.4209,45,182,0,,,,,TOML,20220224175718,Unspecified,Poor,,UBC,B3,,-123.253657,49.267351
VBL10377,Landscape Architecture Annex,LAX,Complete,19210101,Academic,,UBC,Academic,UBC,Occupied,,Wood,3,12.36,601,021,0,,,,,TOML,20220224175718,Unspecified,Poor,,UBC,B2,,-123.250061,49.260657
VBL10391,UBC Farm - Yurt,YURT,Complete,20140101,Academic,,UBC,Academic,UBC,Occupied,,OtherMixed,1,4.14035,65,075,0,,,GISSTUD2,20190514191230,TOML,20220224175718,Outbuildings,Good,,UBC,B3,,-123.239913,49.25126
VBL10413,Environmental Services Facility - Solvent Storage Area,ENV6,Complete,19730101,Operations,,UBC,Academic,UBC,Occupied,,Concrete,1,2.2635,183,141,0,,,GISSTUD2,20190513230818,TOML,20220224175718,Outbuildings,Poor,,UBC,B3,,-123.228605,49.243731
VBL10415,Green College - A South,GRN3,Complete,19940101,StudentHousing,,UBC,Academic,SHHS,Occupied,,Wood,4,13.99,1273,415,0,,,RACHELW,20190722222734,TOML,20220224175718,AptLess5Storey,Poor,,UBC,B5,,-123.255231,49.270941
VBL10416,Vanier Pump Station,VNRP,Complete,19860101,Operations,,UBC,Academic,UBC,Occupied,,Concrete,1,4.99414,14,543,0,,,RACHELW,20190809163912,TOML,20220224175718,Outbuildings,Critical,,UBC,B3,,-123.260266,49.26482
VBL10418,Cecil Green Squash Court,CGSQ,Complete,19290101,Athletics,,UBC,Academic,UBC,Occupied,,Wood,1,7.11469,167,422,0,,,RACHELW,20190827154245,TOML,20220224175718,Outbuildings,Poor,,UBC,B3,,-123.257059,49.271421
VBL10419,UBC Botanical Garden - Shop/Gatehouse Entrance,BOT1,Complete,19900101,Services,,UBC,Academic,UBC,Occupied,,Wood,1,6.21321,150,097,0,,,RACHELW,20190828231732,TOML,20220224175718,Unspecified,Critical,,UBC,B1,,-123.250549,49.254038
VBL10009,UBC Farm - Greenhouse 1,FRM4,Complete,19820101,Operations,,UBC,Academic,UBC,Occupied,,OtherMixed,1,5.17,104,071-1,0,,,NIKT,20200406213544,TOML,20220224175718,Outbuildings,Critical,,UBC,B3,,-123.238931,49.251148
VBL10251,Robert F. Osborne Centre - Unit 1,OSB1,Complete,19700101,Academic,,UBC,Academic,UBC,Occupied,,Concrete,2,10.35,3439,430,0,,,RACHELW,20200707200849,TOML,20220224175718,Unspecified,Critical,,UBC,B2,,-123.243731,49.260289
VBL10272,Child Care Services - Acadia,CCS1,Complete,20090101,Services,,UBC,Academic,SHHS,Occupied,,Wood,1,7.34,434,207,1,,,RACHELW,20210527174002,TOML,20220224175718,Unspecified,Good,,UBC,B2,,-123.234734,49.260896
VBL10222,UBC Research Ponds,RESP,Complete,20100101,Academic,,UBC,Academic,UBC,Occupied,,Wood,1,3,41,585,0,,,RACHELW,20211015004615,TOML,20220224175718,Outbuildings,Fair,,UBC,B2,,-123.232721,49.247161
VBL10397,Fraser River Parkade,PARF,Complete,19820101,Parking,,UBC,Academic,Parking,Occupied,,Concrete,5,12.29,17170,052,0,,,,,TOML,20220224175718,Parking,Poor,,UBC,B4,,-123.258042,49.266067
VBL10400,Environmental Services Facility - Office,ENV4,Complete,19930101,Operations,,UBC,Academic,UBC,Occupied,,OtherMixed,1,3.48892,30,139,0,,,GISSTUD2,20190513225831,TOML,20220224175718,Unspecified,Good,,UBC,B3,,-123.228986,49.243471
VBL10401,Environmental Services Facility - Lab,ENV1,Complete,19940101,Operations,,UBC,Academic,UBC,Occupied,,OtherMixed,1,3.24757,39,138,0,,,GISSTUD2,20190513225451,TOML,20220224175718,Unspecified,Poor,,UBC,B3,,-123.228656,49.243333
VBL10402,Environmental Services Facility - Incinerator,ENV2,Complete,19690101,Operations,,UBC,Academic,UBC,Occupied,,Concrete,1,4.128,104,470,0,,,GISSTUD2,20190513225618,TOML,20220224175718,Outbuildings,Poor,,UBC,B3,,-123.229006,49.243679
VBL10405,Frederic Wood Theatre,FRWO,Complete,19630101,Services,Academic,UBC,Academic,UBC,Occupied,,Concrete,3,19.44,2896,376;376-1,0,,,,,TOML,20220224175718,Unspecified,Poor,,UBC,B1,,-123.256958,49.268053
VBL10410,Gas Gun Facility,GASG,Complete,19890101,Academic,,UBC,Academic,UBC,Occupied,,Wood,1,5.55128,203,394,0,,,,,TOML,20220224175718,Unspecified,Poor,,UBC,B2,,-123.246052,49.256017
VBL10411,Geography Building,GEOG,Complete,19250101,Academic,,UBC,Academic,UBC,Occupied,,Wood,3,11.17667,5497,401,0,,,,,TOML,20220224175718,Unspecified,Critical,,UBC,B2,,-123.256128,49.265984
VBL10233,Norman MacKenzie House,MCKH,Complete,19500101,Housing,,UBC,Academic,UBC,Occupied,,Wood,3,10.54,970,728;728-1,0,,,,,TOML,20220224175718,Duplex/Townhouse,Poor,,UBC,B5,,-123.261175,49.267676
VBL10235,Museum of Anthropology,MOA,Complete,20090320,Services,Academic,UBC,Academic,UBC,Occupied,,Concrete,2,13.64185,11482,570;570-1;436;440,1,,,,,TOML,20220224175718,Unspecified,Poor,,UBC,B1,,-123.259417,49.269507
VBL10245,UBC Farm - Harvest Hut / Market,FRM2,Complete,19750101,Academic,,UBC,Academic,UBC,Occupied,,Wood,1,4.73,150,670,0,,,GISSTUD2,20190514191138,TOML,20220224175718,Outbuildings,Critical,,UBC,B1,,-123.237933,49.250758
VBL10246,UBC Football Academic Centre,FOOT,Complete,20160205,Athletics,,UBC,Academic,Athletics,Occupied,,Wood,1,4.84558,161,437,0,,,,,TOML,20220224175718,Unspecified,Good,,UBC,B2,,-123.24502,49.255246
VBL10248,UBC Life Building,LIFE,Complete,19680101,Academic,,UBC,Academic,UBC,Occupied,,Concrete,3,18.7017,20244,790;790-1;790-2,0,,,,,TOML,20220224175718,Unspecified,Fair,,UBC,B2,,-123.250062,49.267434
VBL10249,Thea Koerner House,THEA,Complete,19610101,Services,,UBC,Academic,UBC,Occupied,,Concrete,4,18.66,4141,408;409,1,,,,,TOML,20220224175718,Unspecified,Poor,,UBC,B2,,-123.257878,49.268439
VBL10250,Ritsumeikan-UBC House,RITS,Complete,19920101,StudentHousing,,UBC,Academic,SHHS,Occupied,,Wood,4,12.23,6763,745,0,,,,,TOML,20220224175718,AptLess5Storey,Critical,,UBC,B5,,-123.252997,49.260102
VBL10260,Acadia Park Residence - Highrise,APRH,Complete,19670101,StudentHousing,,UBC,Academic,SHHS,Occupied,,Concrete,13,3.46,8556,002-1,0,,,GISSTUD2,20190704154828,TOML,20220224175718,Apt5StoreyPlus,Fair,,UBC,B5,,-123.236813,49.26237
VBL10262,Woodward Library,WLIB,Complete,19640101,Academic,,UBC,Academic,UBC,Occupied,,Concrete,4,21.11571,7695,536;536-1,0,,,,,TOML,20220224175718,Unspecified,Poor,,UBC,B2,,-123.24757,49.264563
VBL10327,Chemistry A Physics,CHPH,Complete,19890101,Academic,,UBC,Academic,UBC,Occupied,,Concrete,5,24.48,7631,447,1,,,RACHELW,20190325220100,TOML,20220224175718,Unspecified,Poor,,UBC,B2,,-123.251513,49.265736
VBL10329,Civil and Mechanical Engineering Building,CEME,Complete,19760101,Academic,,UBC,Academic,UBC,Occupied,,Concrete,3,17.4,8773,306,0,,,,,TOML,20220224175718,Unspecified,Poor,,UBC,B2,,-123.248881,49.262545
VBL10330,Civil and Mechanical Engineering Laboratories,CEML,Complete,19690101,Academic,,UBC,Academic,UBC,Occupied,,Concrete,2,15.74,5616,305;307;309;511,1,,,RACHELW,20190207192637,TOML,20220224175718,Unspecified,Poor,,UBC,B2,,-123.24934,49.263129
VBL10331,Brock Hall,BRCK,Complete,19400101,Services,,UBC,Academic,UBC,Occupied,,Concrete,3,16.75063,11428,112-1;112;113,1,,,,,TOML,20220224175718,Unspecified,Poor,,UBC,B2,,-123.252062,49.268639
VBL10332,Campus & Community Planning,CCP,Complete,19470101,Administrative,,UBC,Academic,UBC,Occupied,,Wood,2,8.26772,1389,643;029,1,,,,,TOML,20220224175718,Unspecified,Poor,,UBC,B3,,-123.253282,49.262441
VBL10335,Old Auditorium,AUDI,Complete,19250101,Services,Academic,UBC,Academic,UBC,Occupied,,Wood,3,16.19,2634,044,0,,RENEW,,,TOML,20220224175718,Unspecified,Fair,,UBC,B1,,-123.256101,49.266902
VBL10337,Building Operations Nursery,BONR,Complete,20090101,Operations,,UBC,Academic,UBC,Occupied,,OtherMixed,1,6.57,1316,768,0,,,,,TOML,20220224175718,Outbuildings,Good,,UBC,B3,,-123.229225,49.244432
VBL10338,C.K. Choi Building,CHOI,Complete,19960101,Academic,,UBC,Academic,UBC,Occupied,,Wood,4,15.65402,2710,478,0,,,,,TOML,20220224175718,Unspecified,Poor,,UBC,B2,,-123.257947,49.267262
VBL10341,Cecil Green Park Coach House,CGPC,Complete,19110101,Administrative,,UBC,Academic,UBC,Occupied,,Wood,2,8.9975,243,421,0,,,,,TOML,20220224175718,Unspecified,Poor,,UBC,B3,,-123.25847,49.271001
VBL10342,Cecil Green Park House,CGPH,Complete,19110101,Services,,UBC,Academic,UBC,Occupied,,Wood,5,16.04,2080,420,0,,,,,TOML,20220224175718,Unspecified,Poor,,UBC,B2,,-123.25769,49.271387
VBL10343,Ponderosa Office Annex B,PONB,Complete,19710101,Administrative,,UBC,Academic,UBC,Occupied,,Wood,2,9.26688,975,865-2,0,,,RACHELW,20190116175554,TOML,20220224175718,Unspecified,Critical,,UBC,B2,,-123.255962,49.264844
VBL10344,Ponderosa Office Annex C,PONC,Complete,19710101,Administrative,,UBC,Academic,UBC,Occupied,,Wood,2,9.26,587,865-3,0,,,RACHELW,20190116175554,TOML,20220224175718,Unspecified,Critical,,UBC,B2,,-123.256275,49.264854
VBL10348,Sing Tao Building,STAO,Complete,19970101,Academic,,UBC,Academic,UBC,Occupied,,Concrete,4,12.33,1358,212,0,,,,,TOML,20220224175718,Unspecified,Poor,,UBC,B2,,-123.257756,49.267833
VBL10357,Health Sciences Parkade,PARH,Complete,19800101,Parking,,UBC,Academic,Parking,Occupied,,Concrete,5,12.63436,31481,467,0,,,,,TOML,20220224175718,Parking,Poor,,UBC,B4,,-123.247842,49.263405
VBL10359,Hennings Building,HENN,Complete,19450101,Academic,,UBC,Academic,UBC,Occupied,,Concrete,4,17.31,11578,652;652-1,0,,,,,TOML,20220224175718,Unspecified,Poor,,UBC,B2,,-123.252198,49.266445
VBL10362,Horticulture Building,HORT,Complete,19480101,Academic,,UBC,Academic,UBC,Occupied,,Wood,2,5.66666,1753,456,0,,,,,TOML,20220224175718,Unspecified,Critical,,UBC,B2,,-123.252773,49.261402
VBL10363,Hugh Dempster Pavilion,DMP,Complete,20040101,Academic,Research,UBC,Academic,UBC,Occupied,,Concrete,4,14.75,1488,164,0,,,,,TOML,20220224175718,Unspecified,Fair,,UBC,B2,,-123.248057,49.261242
VBL10364,In-Vessel Composting Facility,COMP,Complete,20040101,Operations,,UBC,Academic,UBC,Occupied,,Steel,1,7.1,185,137,0,,,,,TOML,20220224175718,Outbuildings,Fair,,UBC,B3,,-123.228014,49.244905
VBL10365,Place Vanier Residence - Sherwood Lett House,VNR11,Complete,19600101,StudentHousing,,UBC,Academic,SHHS,Occupied,,Concrete,5,13.64,2112,560,0,,,GISSTUD2,20190514210111,TOML,20220224175718,AptLess5Storey,Poor,,UBC,B5,,-123.257513,49.26339
VBL10366,JB Macdonald Building,MCDN,Complete,19670101,Academic,,UBC,Academic,UBC,Occupied,,Concrete,4,16.42,7209,198,0,,,,,TOML,20220224175718,Unspecified,Poor,,UBC,B2,,-123.24533,49.265345
